[
  {
    "no": 1,
    "destinationName": "선운사",
    "photoFile": "https://www.welchon.com/upload/seasontheme/course/2025/04/72e89d1d-933d-4b55-b274-fc2f36ca2353.png",
    "latitude": 35.49769882,
    "longitude": 126.5795167,
    "address": "전북특별자치도 고창군 아산면 선운사로 250",
    "description": ""
  },
  {
    "no": 2,
    "destinationName": "책마을해리",
    "photoFile": "https://www.welchon.com/upload/seasontheme/course/2025/04/e16e2d12-3e6f-4544-ba23-160078ff3954.png",
    "latitude": 35.47004804,
    "longitude": 126.4832768,
    "address": "전북특별자치도 고창군 해리면 월봉성산길 88",
    "description": ""
  },
  {
    "no": 3,
    "destinationName": "고창청보리밭축제",
    "photoFile": "https://www.welchon.com/upload/seasontheme/course/2025/04/a838c4e7-6e5e-4a0a-82a5-b05fe560dbb6.png",
    "latitude": 35.37534821,
    "longitude": 126.5429077,
    "address": "전북특별자치도 고창군 공음면 학원농장길 154",
    "description": ""
  },
  {
    "no": 4,
    "destinationName": "명동게장",
    "photoFile": "https://www.welchon.com/upload/seasontheme/course/2025/04/adb6e4bf-ec80-4e41-a8ef-27bdf78f00b8.jpg",
    "latitude": 34.7329194,
    "longitude": 127.7219246,
    "address": "전남 여수시 봉산남4길 23-26 (봉산동)",
    "description": ""
  },
  {
    "no": 5,
    "destinationName": "오동도",
    "photoFile": "https://www.welchon.com/upload/seasontheme/course/2025/04/26e4206d-e839-43c0-a905-b6807f4a53c3.jpg",
    "latitude": 34.74447976,
    "longitude": 127.7675258,
    "address": "전남 여수시 오동도로 238-32 (수정동)",
    "description": ""
  },
  {
    "no": 6,
    "destinationName": "갓고을마을",
    "photoFile": "https://www.welchon.com/upload/seasontheme/course/2025/04/2c146669-7a6a-4bdf-947a-b168b45bff79.jpg",
    "latitude": 34.63988056,
    "longitude": 127.7868007,
    "address": "전남 여수시 돌산읍 향일암로 913",
    "description": ""
  },
  {
    "no": 7,
    "destinationName": "개심사",
    "photoFile": "https://www.welchon.com/upload/seasontheme/course/2025/04/e96ebef4-cf98-49c1-b469-eccb4afc28c6.jpg",
    "latitude": 36.74690048,
    "longitude": 126.5899686,
    "address": "충남 서산시 운산면 개심사로 321-86",
    "description": ""
  },
  {
    "no": 8,
    "destinationName": "중리어촌체험마을",
    "photoFile": "https://www.welchon.com/upload/seasontheme/course/2025/04/b758fa21-a23f-41c7-a6bb-f5330f6fc462.jpg",
    "latitude": 36.88040246,
    "longitude": 126.3845438,
    "address": "충남 서산시 지곡면 어름들2길 66",
    "description": ""
  },
  {
    "no": 9,
    "destinationName": "카페바뇨",
    "photoFile": "https://www.welchon.com/upload/seasontheme/course/2025/04/d167cfbe-4cdd-406f-addb-241b53801e5d.jpg",
    "latitude": 36.71078869,
    "longitude": 126.5458338,
    "address": "충남 서산시 해미면 읍성마을4길 19",
    "description": ""
  },
  {
    "no": 10,
    "destinationName": "삼척맹방유채꽃축제",
    "photoFile": "https://www.welchon.com/upload/seasontheme/course/2025/04/c4a5fb86-8655-4f86-abd7-ed021d8e976d.png",
    "latitude": 37.40410347,
    "longitude": 129.2075335,
    "address": "강원특별자치도 삼척시 근덕면 상맹방길 295",
    "description": ""
  },
  {
    "no": 11,
    "destinationName": "삼척신리너와마을",
    "photoFile": "https://www.welchon.com/upload/seasontheme/course/2025/04/76bad548-029d-4ec6-b8ef-63ac825e8e4f.png",
    "latitude": 37.18373871,
    "longitude": 129.1299566,
    "address": "강원특별자치도 삼척시 도계읍 문의재로 1113",
    "description": ""
  },
  {
    "no": 12,
    "destinationName": "특미관",
    "photoFile": "https://www.welchon.com/upload/seasontheme/course/2025/04/e20cff4f-f355-4732-88f7-d88ab8932f86.png",
    "latitude": 34.76513346,
    "longitude": 127.077572,
    "address": "전남 보성군 보성읍 봉화로 53",
    "description": ""
  },
  {
    "no": 13,
    "destinationName": "대한다원보성녹차밭",
    "photoFile": "https://www.welchon.com/upload/seasontheme/course/2025/04/875d14cb-c8c5-434b-b10c-9e91b7629a58.png",
    "latitude": 34.71479875,
    "longitude": 127.0809569,
    "address": "전남 보성군 보성읍 녹차로 763-43",
    "description": ""
  },
  {
    "no": 14,
    "destinationName": "다향울림촌휴양마을",
    "photoFile": "https://www.welchon.com/upload/seasontheme/course/2025/04/49c56640-94cd-455e-b95f-a1277ffd89e7.png",
    "latitude": 34.66557022,
    "longitude": 127.0814277,
    "address": "전남 보성군 회천면 남부관광로 2248",
    "description": ""
  },
  {
    "no": 15,
    "destinationName": "남지철교",
    "photoFile": "https://www.welchon.com/upload/seasontheme/course/2025/04/35b25971-fec3-470d-87a0-36ec95f05a20.png",
    "latitude": 35.38899062,
    "longitude": 128.4779942,
    "address": "경남 창녕군 남지읍 낙동로 489",
    "description": ""
  },
  {
    "no": 16,
    "destinationName": "남마뮤지엄",
    "photoFile": "https://www.welchon.com/upload/seasontheme/course/2025/04/2ed53273-59d5-4fd3-93e5-dbc93e013f05.png",
    "latitude": 35.38619444,
    "longitude": 128.4794102,
    "address": "경남 창녕군 남지읍 남지강변길 100",
    "description": ""
  },
  {
    "no": 17,
    "destinationName": "성곡오색별빛마을",
    "photoFile": "https://www.welchon.com/upload/seasontheme/course/2025/04/1add422d-bba0-4dfc-b39d-58b31a41b8a2.png",
    "latitude": 35.63642678,
    "longitude": 128.5210046,
    "address": "경남 창녕군 성산면 연당대산로 38",
    "description": ""
  },
  {
    "no": 18,
    "destinationName": "성곡오색별빛마을",
    "photoFile": "https://www.welchon.com/upload/seasontheme/course/2025/03/02a082f9-6b14-4735-a9b5-dabbcb8bb232.png",
    "latitude": 35.63642678,
    "longitude": 128.5210046,
    "address": "경남 창녕군 성산면 연당대산로 38",
    "description": ""
  },
  {
    "no": 19,
    "destinationName": "남지철교",
    "photoFile": "https://www.welchon.com/upload/seasontheme/course/2025/03/41002e58-4e8f-470a-8f66-4529f696fc27.png",
    "latitude": 35.38899062,
    "longitude": 128.4779942,
    "address": "경남 창녕군 남지읍 낙동로 489",
    "description": ""
  },
  {
    "no": 20,
    "destinationName": "남마뮤지엄",
    "photoFile": "https://www.welchon.com/upload/seasontheme/course/2025/03/dff987c0-9a7d-4cb1-b94f-f0be96eee77a.png",
    "latitude": 35.38619444,
    "longitude": 128.4794102,
    "address": "경남 창녕군 남지읍 남지강변길 100",
    "description": ""
  },
  {
    "no": 21,
    "destinationName": "단성벽화마을",
    "photoFile": "https://www.welchon.com/upload/seasontheme/course/2025/03/5be2f364-933c-4717-9f7f-8b6c75cfab5c.png",
    "latitude": 36.93679247,
    "longitude": 128.3236101,
    "address": "충북 단양군 단성면 충혼로 16",
    "description": ""
  },
  {
    "no": 22,
    "destinationName": "만천하스카이워크",
    "photoFile": "https://www.welchon.com/upload/seasontheme/course/2025/03/27dd26db-a3c7-4bd3-892d-4e1fafef631a.png",
    "latitude": 36.97760528,
    "longitude": 128.3370971,
    "address": "충북 단양군 적성면 옷바위길 10",
    "description": ""
  },
  {
    "no": 23,
    "destinationName": "도담삼봉",
    "photoFile": "https://www.welchon.com/upload/seasontheme/course/2025/03/251c23de-b2f5-4f04-b98a-7c312ee06669.png",
    "latitude": 37.00029492,
    "longitude": 128.3448007,
    "address": "충북 단양군 매포읍 삼봉로 644",
    "description": ""
  },
  {
    "no": 24,
    "destinationName": "소식다료 차실",
    "photoFile": "https://www.welchon.com/upload/seasontheme/course/2025/03/222a5910-117e-4b6d-a8a2-260fb3f7382a.png",
    "latitude": 35.20886229,
    "longitude": 127.4604531,
    "address": "전남 구례군 구례읍 북교뒷길 16-2",
    "description": ""
  },
  {
    "no": 25,
    "destinationName": "구례 산수유 축제",
    "photoFile": "https://www.welchon.com/upload/seasontheme/course/2025/03/f037ed9a-0907-4e18-aa29-3b83c9d633a1.png",
    "latitude": 35.31945367,
    "longitude": 127.4684999,
    "address": "전남 구례군 산동면 상관1길 49-26",
    "description": ""
  },
  {
    "no": 26,
    "destinationName": "지리산 치즈랜드",
    "photoFile": "https://www.welchon.com/upload/seasontheme/course/2025/03/8ca95df7-4891-4cce-9946-b917ced6c0d3.png",
    "latitude": 35.27789557,
    "longitude": 127.4217328,
    "address": "전남 구례군 산동면 산업로 1590-62",
    "description": ""
  },
  {
    "no": 27,
    "destinationName": "그림같은수목원",
    "photoFile": "https://www.welchon.com/upload/seasontheme/course/2025/03/531d7190-5744-4d60-96c8-cd319bf0d5ef.png",
    "latitude": 36.51977251,
    "longitude": 126.6295606,
    "address": "충남 홍성군 광천읍 충서로400번길 102-36",
    "description": ""
  },
  {
    "no": 28,
    "destinationName": "남당항",
    "photoFile": "https://www.welchon.com/upload/seasontheme/course/2025/03/765b4e66-e935-49b6-a6f4-9f13e1442afd.png",
    "latitude": 36.53883088,
    "longitude": 126.4722831,
    "address": "충남 홍성군 서부면 남당항로213번길 1-1",
    "description": ""
  },
  {
    "no": 29,
    "destinationName": "남당 노을전망대",
    "photoFile": "https://www.welchon.com/upload/seasontheme/course/2025/03/805f5883-ed7f-4672-81da-b7dbbc27435f.png",
    "latitude": 36.5447661,
    "longitude": 126.4654127,
    "address": "충남 홍성군 서부면 남당항로213번길 96",
    "description": ""
  },
  {
    "no": 30,
    "destinationName": "섬진강고향집재첩국",
    "photoFile": "https://www.welchon.com/upload/seasontheme/course/2025/03/3a612bc4-bd32-4ce3-89b7-12b908e9de9f.png",
    "latitude": 35.06158428,
    "longitude": 127.7366136,
    "address": "전남 광양시 다압면 원동길 70-21",
    "description": ""
  },
  {
    "no": 31,
    "destinationName": "광양매화문화관",
    "photoFile": "https://www.welchon.com/upload/seasontheme/course/2025/03/86051055-909f-401f-ac37-99dc4a9ef594.png",
    "latitude": 35.07665863,
    "longitude": 127.7180474,
    "address": "전남 광양시 다압면 지막1길 21",
    "description": ""
  },
  {
    "no": 32,
    "destinationName": "제24회 광양매화축제",
    "photoFile": "https://www.welchon.com/upload/seasontheme/course/2025/03/23036aba-7c82-45a1-b239-bf419377b5fc.png",
    "latitude": 35.08034909,
    "longitude": 127.7153051,
    "address": "전남 광양시 다압면 섬진강매화로 1563-1",
    "description": ""
  },
  {
    "no": 33,
    "destinationName": "국토정중앙천문대",
    "photoFile": "https://www.welchon.com/upload/seasontheme/course/2025/03/73a54373-6d56-40fb-af83-95d9a2a6317e.png",
    "latitude": 38.06893073,
    "longitude": 128.0296771,
    "address": "강원특별자치도 양구군 국토정중앙면 국토정중앙로 127",
    "description": ""
  },
  {
    "no": 34,
    "destinationName": "시래원",
    "photoFile": "https://www.welchon.com/upload/seasontheme/course/2025/03/d66643a4-7851-4c74-b555-bb97b445ee1e.png",
    "latitude": 38.07486948,
    "longitude": 128.0236611,
    "address": "강원특별자치도 양구군 국토정중앙면 봉화산로 457",
    "description": ""
  },
  {
    "no": 35,
    "destinationName": "국토정중앙배꼽마을",
    "photoFile": "https://www.welchon.com/upload/seasontheme/course/2025/03/e9e2cbbc-f933-43f6-bad3-cb6b9fc6cc3a.png",
    "latitude": 38.07177712,
    "longitude": 128.0231635,
    "address": "강원특별자치도 양구군 국토정중앙면 봉화산로 425",
    "description": ""
  },
  {
    "no": 36,
    "destinationName": "강화 화개산 모노레일",
    "photoFile": "https://www.welchon.com/upload/seasontheme/course/2025/02/f0f59047-afab-4d47-8fce-a8fd2ab6b4cf.png",
    "latitude": 37.78366648,
    "longitude": 126.2902043,
    "address": "인천 강화군 교동면 교동동로471번길 6-60",
    "description": ""
  },
  {
    "no": 37,
    "destinationName": "강화도 왕방마을 얼음축제",
    "photoFile": "https://www.welchon.com/upload/seasontheme/course/2025/02/45bec77d-b654-4eec-a6c8-5a51172e75b2.png",
    "latitude": 37.69890534,
    "longitude": 126.4312513,
    "address": "인천 강화군 양도면 중앙로787번길 8-1",
    "description": ""
  },
  {
    "no": 38,
    "destinationName": "아트팩토리 참기름",
    "photoFile": "https://www.welchon.com/upload/seasontheme/course/2025/02/ea780fb8-65ba-468f-9798-519bfa9d0c9a.png",
    "latitude": 37.6677837,
    "longitude": 126.4801993,
    "address": "인천 강화군 길상면 까치골길 109",
    "description": ""
  },
  {
    "no": 39,
    "destinationName": "2025 삼척 정월대보름제",
    "photoFile": "https://www.welchon.com/upload/seasontheme/course/2025/02/117e2be6-dc80-4b52-b55a-d05455772b27.png",
    "latitude": 37.438962,
    "longitude": 129.1601392,
    "address": "강원특별자치도 삼척시 엑스포로 45 (성남동)",
    "description": ""
  },
  {
    "no": 40,
    "destinationName": "삼척 세계동굴 엑스포타운",
    "photoFile": "https://www.welchon.com/upload/seasontheme/course/2025/02/8c36f90e-05aa-4641-b108-ff8ddfcf6abd.png",
    "latitude": 37.43807084,
    "longitude": 129.1582537,
    "address": "강원특별자치도 삼척시 엑스포로 69 (성남동)",
    "description": ""
  },
  {
    "no": 41,
    "destinationName": "성원닭갈비",
    "photoFile": "https://www.welchon.com/upload/seasontheme/course/2025/02/53f3952b-c18f-4091-b632-69f5d46fbf73.png",
    "latitude": 37.44465909,
    "longitude": 129.1779763,
    "address": "강원특별자치도 삼척시 정상안1길 14-32 (정상동)",
    "description": ""
  },
  {
    "no": 42,
    "destinationName": "전통술박물관 산사원",
    "photoFile": "https://www.welchon.com/upload/seasontheme/course/2025/02/40e82e7b-ff61-4d09-8cfd-57edbef91b71.png",
    "latitude": 37.90599568,
    "longitude": 127.3099048,
    "address": "경기 포천시 화현면 화동로432번길 25",
    "description": ""
  },
  {
    "no": 43,
    "destinationName": "포천아트밸리",
    "photoFile": "https://www.welchon.com/upload/seasontheme/course/2025/02/3f2fd97f-0e8a-4c5c-b238-155f7f58c5cd.png",
    "latitude": 37.92344665,
    "longitude": 127.2365009,
    "address": "경기 포천시 신북면 아트밸리로 234",
    "description": ""
  },
  {
    "no": 44,
    "destinationName": "아딸농원",
    "photoFile": "https://www.welchon.com/upload/seasontheme/course/2025/02/a0995942-903c-4df4-8bb8-74692df7deaa.png",
    "latitude": 37.8219921,
    "longitude": 127.159257,
    "address": "경기 포천시 소흘읍 죽엽산로109번길 13",
    "description": ""
  },
  {
    "no": 45,
    "destinationName": "청도 프로방스",
    "photoFile": "https://www.welchon.com/upload/seasontheme/course/2025/02/c5e09b1c-d609-449b-9a72-05af348d3eed.png",
    "latitude": 35.68410115,
    "longitude": 128.7181844,
    "address": "경북 청도군 화양읍 이슬미로 272-23",
    "description": ""
  },
  {
    "no": 46,
    "destinationName": "시골곰탕",
    "photoFile": "https://www.welchon.com/upload/seasontheme/course/2025/02/8d3c5e5c-1522-4006-bea8-bda8552763da.png",
    "latitude": 35.68946792,
    "longitude": 128.7185336,
    "address": "경북 청도군 화양읍 온천길 28-4",
    "description": ""
  },
  {
    "no": 47,
    "destinationName": "청도 소싸움 미디어체험관",
    "photoFile": "https://www.welchon.com/upload/seasontheme/course/2025/02/8409469f-a3ae-42bc-bf25-8ae61fcd7752.png",
    "latitude": 35.68522526,
    "longitude": 128.7242011,
    "address": "경북 청도군 화양읍 남성현로 346",
    "description": ""
  },
  {
    "no": 48,
    "destinationName": "청도 소싸움축제",
    "photoFile": "https://www.welchon.com/upload/seasontheme/course/2025/02/7198ad36-4ae6-43b3-a773-d1b84a3b4fda.png",
    "latitude": 35.68673459,
    "longitude": 128.7251449,
    "address": "경북 청도군 화양읍 남성현로 348",
    "description": ""
  },
  {
    "no": 49,
    "destinationName": "수안보 온천 족욕체험장",
    "photoFile": "https://www.welchon.com/upload/seasontheme/course/2025/02/af8a282e-32d5-4250-9fdf-e2fe259510ad.png",
    "latitude": 36.84607076,
    "longitude": 127.9893275,
    "address": "충북 충주시 수안보면 주정산로 35",
    "description": ""
  },
  {
    "no": 50,
    "destinationName": "오미가",
    "photoFile": "https://www.welchon.com/upload/seasontheme/course/2025/02/b3df521c-30cf-4a0e-a7b2-42cf208e65f5.png",
    "latitude": 36.84750935,
    "longitude": 127.9898432,
    "address": "충북 충주시 수안보면 주정산로 19",
    "description": ""
  },
  {
    "no": 51,
    "destinationName": "중앙탑의상실",
    "photoFile": "https://www.welchon.com/upload/seasontheme/course/2025/02/7f076d03-5a9e-43bf-8271-c2407f35fdd4.png",
    "latitude": 37.01829106,
    "longitude": 127.8661276,
    "address": "충북 충주시 중앙탑면 탑정안길 10",
    "description": ""
  },
  {
    "no": 52,
    "destinationName": "쌀겨효소테라피",
    "photoFile": "https://www.welchon.com/upload/seasontheme/course/2025/02/d3a6dd60-6e4b-4963-bc4d-3776aca5355a.png",
    "latitude": 37.04486837,
    "longitude": 127.9274023,
    "address": "충북 충주시 금가면 충원대로 1355",
    "description": ""
  },
  {
    "no": 53,
    "destinationName": "산촌식당",
    "photoFile": "https://www.welchon.com/upload/seasontheme/course/2025/01/8f376c93-8c30-46f0-8244-ffa5569d25ba.png",
    "latitude": 37.71452286,
    "longitude": 128.8280713,
    "address": "강원특별자치도 강릉시 성산면 구산길 83",
    "description": ""
  },
  {
    "no": 54,
    "destinationName": "대관령 황태이야기",
    "photoFile": "https://www.welchon.com/upload/seasontheme/course/2025/01/8984126f-5ad1-491a-ad93-2fe62ce957f1.png",
    "latitude": 37.66533346,
    "longitude": 128.7094332,
    "address": "강원특별자치도 평창군 대관령면 송전길 8",
    "description": ""
  },
  {
    "no": 55,
    "destinationName": "대관령눈꽃축제",
    "photoFile": "https://www.welchon.com/upload/seasontheme/course/2025/01/c5cfd741-998e-4799-8002-4dba44ca3610.png",
    "latitude": 37.70493355,
    "longitude": 128.7017723,
    "address": "강원특별자치도 평창군 대관령면 사부랑길 224-2",
    "description": ""
  },
  {
    "no": 56,
    "destinationName": "로컬커피",
    "photoFile": "https://www.welchon.com/upload/seasontheme/course/2025/01/77253196-6d70-4c7a-bb2e-ad98b6f3c257.png",
    "latitude": 36.45865429,
    "longitude": 127.1182784,
    "address": "충남 공주시 용당길 55-7 (교동)",
    "description": ""
  },
  {
    "no": 57,
    "destinationName": "솥뚜껑 매운탕",
    "photoFile": "https://www.welchon.com/upload/seasontheme/course/2025/01/8f12c2cf-2a9b-4f08-8c4d-99d113cfa60b.png",
    "latitude": 36.47939928,
    "longitude": 127.0475059,
    "address": "충남 공주시 사곡면 아래안영골길 4",
    "description": ""
  },
  {
    "no": 58,
    "destinationName": "무령왕릉",
    "photoFile": "https://www.welchon.com/upload/seasontheme/course/2025/01/0770008a-d2af-4603-8cc0-de8419ad7629.png",
    "latitude": 36.46244576,
    "longitude": 127.1129779,
    "address": "충남 공주시 왕릉로 37 (웅진동)",
    "description": ""
  },
  {
    "no": 59,
    "destinationName": "겨울공주 군밤축제",
    "photoFile": "https://www.welchon.com/upload/seasontheme/course/2025/01/b17ce38d-9da7-4785-a6d5-aac1daf54b89.png",
    "latitude": 36.47021499,
    "longitude": 127.1274388,
    "address": "충남 공주시 금벽로 368 (신관동)",
    "description": ""
  },
  {
    "no": 60,
    "destinationName": "무주초리꽁꽁놀이축제",
    "photoFile": "https://www.welchon.com/upload/seasontheme/course/2025/01/90053493-0895-46ba-8b85-4e95056bdcb4.png",
    "latitude": 35.98171091,
    "longitude": 127.700533,
    "address": "전북특별자치도 무주군 적상면 초리길 5",
    "description": ""
  },
  {
    "no": 61,
    "destinationName": "전북제사 1970 카페",
    "photoFile": "https://www.welchon.com/upload/seasontheme/course/2025/01/b4c3e092-9853-4839-8542-987ed7cd106d.png",
    "latitude": 36.01057449,
    "longitude": 127.6878487,
    "address": "전북특별자치도 무주군 무주읍 무설로 104",
    "description": ""
  },
  {
    "no": 62,
    "destinationName": "무주 머루와인동굴",
    "photoFile": "https://www.welchon.com/upload/seasontheme/course/2025/01/1e443ca4-8402-4602-95a8-f6b3b993298b.png",
    "latitude": 35.96492186,
    "longitude": 127.6975189,
    "address": "전북특별자치도 무주군 적상면 산성로 359",
    "description": ""
  },
  {
    "no": 63,
    "destinationName": "무주 청정다슬기맛집",
    "photoFile": "https://www.welchon.com/upload/seasontheme/course/2025/01/a2dc5bcb-6756-443c-a365-0a4035caab10.png",
    "latitude": 35.89800399,
    "longitude": 127.7766866,
    "address": "전북특별자치도 무주군 설천면 구천동1로 111",
    "description": ""
  },
  {
    "no": 64,
    "destinationName": "화천산천어축제",
    "photoFile": "https://www.welchon.com/upload/seasontheme/course/2025/01/9fb8cf0a-43c6-4d7f-91e5-773fa1e023b5.png",
    "latitude": 38.10428659,
    "longitude": 127.6982383,
    "address": "강원특별자치도 화천군 화천읍 상승로1길 37-11",
    "description": ""
  },
  {
    "no": 65,
    "destinationName": "소도마을",
    "photoFile": "https://www.welchon.com/upload/seasontheme/course/2025/01/df5c3026-85d2-4e67-87bf-9b49e278feeb.png",
    "latitude": 38.08917489,
    "longitude": 127.5068951,
    "address": "강원특별자치도 화천군 사내면 수피령로 131-353",
    "description": ""
  },
  {
    "no": 66,
    "destinationName": "산천어커피박물관",
    "photoFile": "https://www.welchon.com/upload/seasontheme/course/2025/01/40eb1eeb-bee1-418f-acce-4d6917d40b8c.png",
    "latitude": 38.10596896,
    "longitude": 127.7037747,
    "address": "강원특별자치도 화천군 화천읍 상승로2길 21",
    "description": ""
  },
  {
    "no": 67,
    "destinationName": "안덕마을",
    "photoFile": "https://www.welchon.com/upload/seasontheme/course/2025/01/b46fd2fd-b06a-40fc-b3b8-1614a2bcca9a.png",
    "latitude": 35.69513207,
    "longitude": 127.0997819,
    "address": "전북특별자치도 완주군 구이면 장파길 72",
    "description": ""
  },
  {
    "no": 68,
    "destinationName": "쌍산재",
    "photoFile": "https://www.welchon.com/upload/seasontheme/course/2025/01/af6ed126-b98c-4925-b661-adeb29f674bb.png",
    "latitude": 35.21574256,
    "longitude": 127.4980312,
    "address": "전남 구례군 마산면 장수길 3-2",
    "description": ""
  },
  {
    "no": 69,
    "destinationName": "덕천마을",
    "photoFile": "https://www.welchon.com/upload/seasontheme/course/2025/01/2f735696-f21d-42b3-bac3-d370b582152a.png",
    "latitude": 36.43674646,
    "longitude": 129.0261157,
    "address": "경북 청송군 파천면 송소고택길 25-22",
    "description": ""
  },
  {
    "no": 70,
    "destinationName": "금당실전통마을",
    "photoFile": "https://www.welchon.com/upload/seasontheme/course/2025/01/af010890-5c1c-43d7-9ca5-866054d035ae.png",
    "latitude": 36.68973808,
    "longitude": 128.4115789,
    "address": "경북 예천군 용문면 금당실길 52-4",
    "description": ""
  },
  {
    "no": 71,
    "destinationName": "척산온천마을",
    "photoFile": "https://www.welchon.com/upload/seasontheme/course/2025/01/db7458ff-cb22-4056-a7a4-76bdef7adc63.png",
    "latitude": 38.19020447,
    "longitude": 128.5407025,
    "address": "강원특별자치도 속초시 관광로 327 (노학동)",
    "description": ""
  },
  {
    "no": 72,
    "destinationName": "초록미소마을",
    "photoFile": "https://www.welchon.com/upload/seasontheme/course/2025/01/49c706a0-0ef6-4eac-afd7-e558a677ae9e.png",
    "latitude": 37.00878781,
    "longitude": 127.0022462,
    "address": "경기 평택시 오성면 신1리길 44-14",
    "description": ""
  },
  {
    "no": 73,
    "destinationName": "예밀촌마을",
    "photoFile": "https://www.welchon.com/upload/seasontheme/course/2025/01/f33ca622-7fa5-4e6f-b96e-b24d22ba784a.png",
    "latitude": 37.14253775,
    "longitude": 128.5908741,
    "address": "강원특별자치도 영월군 김삿갓면 예밀촌길 237",
    "description": ""
  },
  {
    "no": 74,
    "destinationName": "올레오치유농장",
    "photoFile": "https://www.welchon.com/upload/seasontheme/course/2025/01/168506c5-4d44-4479-9102-9621190168ff.png",
    "latitude": 35.4277094,
    "longitude": 127.0626311,
    "address": "전북특별자치도 순창군 구림면 강천로 854-23",
    "description": ""
  },
  {
    "no": 75,
    "destinationName": "킴스마운틴커피",
    "photoFile": "https://www.welchon.com/upload/seasontheme/course/2025/01/51e86919-f574-4dec-9853-84eefee6292c.png",
    "latitude": 36.3907697,
    "longitude": 129.1392416,
    "address": "경북 청송군 주왕산면 당마을길 7",
    "description": ""
  },
  {
    "no": 76,
    "destinationName": "마이산홍삼족욕카페",
    "photoFile": "https://www.welchon.com/upload/seasontheme/course/2025/01/f659ae29-6f08-4e0f-9e77-2df999933d05.png",
    "latitude": 35.77550858,
    "longitude": 127.417859,
    "address": "전북특별자치도 진안군 진안읍 마이산로 130",
    "description": ""
  },
  {
    "no": 77,
    "destinationName": "신정수산",
    "photoFile": "https://www.welchon.com/upload/seasontheme/course/2024/12/f9fb9df5-4c0a-401a-bfde-e53cf28b1f5d.png",
    "latitude": 35.9778826,
    "longitude": 129.5512413,
    "address": "경북 포항시 남구 구룡포읍 하정로172번길 15",
    "description": ""
  },
  {
    "no": 78,
    "destinationName": "구룡포 과메기 문화관",
    "photoFile": "https://www.welchon.com/upload/seasontheme/course/2024/12/6275fec6-1706-430d-bfa5-3e0b2a8f0848.png",
    "latitude": 35.9927403,
    "longitude": 129.5617992,
    "address": "경북 포항시 남구 구룡포읍 구룡포길117번길 28-8",
    "description": ""
  },
  {
    "no": 79,
    "destinationName": "구룡포 일본인 가옥거리",
    "photoFile": "https://www.welchon.com/upload/seasontheme/course/2024/12/24e81aad-1b27-40e5-99b7-3cd815d71c06.png",
    "latitude": 35.99062096,
    "longitude": 129.560455,
    "address": "경북 포항시 남구 구룡포읍 호미로 277",
    "description": ""
  },
  {
    "no": 80,
    "destinationName": "팥거리장터 콩쥐팥쥐",
    "photoFile": "https://www.welchon.com/upload/seasontheme/course/2024/12/2f50a446-8599-4a4f-85d6-6481d0c71cb1.png",
    "latitude": 36.26741073,
    "longitude": 127.2736122,
    "address": "충남 계룡시 두마면 팥거리2길 12-9",
    "description": ""
  },
  {
    "no": 81,
    "destinationName": "마곡사",
    "photoFile": "https://www.welchon.com/upload/seasontheme/course/2024/12/4e03ffa2-ee6c-4a42-b44d-5af7a4434b73.png",
    "latitude": 36.55740597,
    "longitude": 127.0116015,
    "address": "충남 공주시 사곡면 마곡사로 966",
    "description": ""
  },
  {
    "no": 82,
    "destinationName": "한국자연사박물관",
    "photoFile": "https://www.welchon.com/upload/seasontheme/course/2024/12/514f9186-24ee-4afb-a239-c979cd29277c.png",
    "latitude": 36.3664009,
    "longitude": 127.2448238,
    "address": "충남 공주시 반포면 임금봉길 49-25",
    "description": ""
  },
  {
    "no": 83,
    "destinationName": "백두대간협곡열차(V-train) / 분천역",
    "photoFile": "https://www.welchon.com/upload/seasontheme/course/2024/12/f272f70e-bb10-437e-b521-b5ea7e24ea41.png",
    "latitude": 36.93259938,
    "longitude": 129.0586709,
    "address": "경북 봉화군 소천면 분천길 49",
    "description": ""
  },
  {
    "no": 84,
    "destinationName": "분천 커피방앗간",
    "photoFile": "https://www.welchon.com/upload/seasontheme/course/2024/12/81cff295-13b3-404e-87c9-277909072d41.png",
    "latitude": 36.9315399,
    "longitude": 129.0572773,
    "address": "경북 봉화군 소천면 분천길 40",
    "description": ""
  },
  {
    "no": 85,
    "destinationName": "철암 탄광역사촌",
    "photoFile": "https://www.welchon.com/upload/seasontheme/course/2024/12/8d6aa7ae-7ded-4024-bfe7-ed087c316cc5.png",
    "latitude": 37.11436554,
    "longitude": 129.0372165,
    "address": "강원특별자치도 태백시 동태백로 406 (철암동)",
    "description": ""
  },
  {
    "no": 86,
    "destinationName": "분천역 산타마을",
    "photoFile": "https://www.welchon.com/upload/seasontheme/course/2024/12/99b09978-a8d4-49c2-b3b4-f57521def139.png",
    "latitude": 36.93259938,
    "longitude": 129.0586709,
    "address": "경북 봉화군 소천면 분천길 49",
    "description": ""
  },
  {
    "no": 87,
    "destinationName": "산타육칼",
    "photoFile": "https://www.welchon.com/upload/seasontheme/course/2024/12/6199252f-0620-4133-a088-1d981df9f5bc.png",
    "latitude": 36.93137088,
    "longitude": 129.0586708,
    "address": "경북 봉화군 소천면 분천2길 8-1",
    "description": ""
  },
  {
    "no": 88,
    "destinationName": "카페 핑크문",
    "photoFile": "https://www.welchon.com/upload/seasontheme/course/2024/11/ca368a6e-0058-44de-8941-4abe1c2e4c18.png",
    "latitude": 34.71881459,
    "longitude": 127.3418832,
    "address": "전남 고흥군 남양면 우주항공로 3685",
    "description": ""
  },
  {
    "no": 89,
    "destinationName": "고흥유자축제",
    "photoFile": "https://www.welchon.com/upload/seasontheme/course/2024/11/9bf66631-5082-4526-8d47-4675b90db5c1.png",
    "latitude": 34.5757251,
    "longitude": 127.2333003,
    "address": "전남 고흥군 풍양면 양리길 23",
    "description": ""
  },
  {
    "no": 90,
    "destinationName": "선정은하수꼬막마을",
    "photoFile": "https://www.welchon.com/upload/seasontheme/course/2024/11/84b8ce8e-b3e8-430a-b58d-522cd851db7d.png",
    "latitude": 34.75721141,
    "longitude": 127.3969474,
    "address": "전남 고흥군 남양면 망월로 414-18",
    "description": ""
  },
  {
    "no": 91,
    "destinationName": "장유도예카페",
    "photoFile": "https://www.welchon.com/upload/seasontheme/course/2024/11/a30cc414-ce52-4a66-8aba-41dc4bff681d.png",
    "latitude": 35.18292006,
    "longitude": 128.7699489,
    "address": "경남 김해시 대청계곡길 195-79 (대청동)",
    "description": ""
  },
  {
    "no": 92,
    "destinationName": "무척산 한옥마을",
    "photoFile": "https://www.welchon.com/upload/seasontheme/course/2024/11/48f772a2-f8ef-46d4-a8a5-cc334abc542c.png",
    "latitude": 35.38066887,
    "longitude": 128.8416909,
    "address": "경남 김해시 생림면 안양로358번길 38",
    "description": ""
  },
  {
    "no": 93,
    "destinationName": "김해분청도자기 축제",
    "photoFile": "https://www.welchon.com/upload/seasontheme/course/2024/11/28434d52-019e-45a3-8016-245e22d93aac.png",
    "latitude": 35.25149575,
    "longitude": 128.7458506,
    "address": "경남 김해시 진례면 분청로 17",
    "description": ""
  },
  {
    "no": 94,
    "destinationName": "팔팔식당",
    "photoFile": "https://www.welchon.com/upload/seasontheme/course/2024/11/b4782129-ac59-44d0-b31f-087601ff0efd.png",
    "latitude": 36.50627531,
    "longitude": 129.1202134,
    "address": "경북 청송군 진보면 경동로 5157",
    "description": ""
  },
  {
    "no": 95,
    "destinationName": "청송송소고택",
    "photoFile": "https://www.welchon.com/upload/seasontheme/course/2024/11/3b1cac0a-dc2d-4172-9dd8-fa9a932159ab.png",
    "latitude": 36.43617486,
    "longitude": 129.0265139,
    "address": "경북 청송군 파천면 송소고택길 15-2",
    "description": ""
  },
  {
    "no": 96,
    "destinationName": "제18회 청송사과축제",
    "photoFile": "https://www.welchon.com/upload/seasontheme/course/2024/11/0497343a-1df4-4704-bc46-f95d8d172c93.png",
    "latitude": 36.42799455,
    "longitude": 129.0576056,
    "address": "경북 청송군 청송읍 금곡1길 28",
    "description": ""
  },
  {
    "no": 97,
    "destinationName": "2024 괴산 김장 축제",
    "photoFile": "https://www.welchon.com/upload/seasontheme/course/2024/11/f747351f-c0b5-41de-9424-9233ca8de2d9.png",
    "latitude": 36.8134802,
    "longitude": 127.7882013,
    "address": "충북 괴산군 괴산읍 임꺽정로 75-1",
    "description": ""
  },
  {
    "no": 98,
    "destinationName": "문광저수지",
    "photoFile": "https://www.welchon.com/upload/seasontheme/course/2024/11/9224027a-b881-43ab-b083-2ddca9fb84fb.png",
    "latitude": 36.77469628,
    "longitude": 127.7425212,
    "address": "충북 괴산군 문광면 괴산로양곡5길 124-1",
    "description": ""
  },
  {
    "no": 99,
    "destinationName": "민속보쌈족발",
    "photoFile": "https://www.welchon.com/upload/seasontheme/course/2024/11/fd3d2771-f38c-4f7e-b597-3c75f34c2adb.png",
    "latitude": 36.80916961,
    "longitude": 127.7935632,
    "address": "충북 괴산군 괴산읍 읍내로10길 15",
    "description": ""
  },
  {
    "no": 100,
    "destinationName": "보은대추닭강정",
    "photoFile": "https://www.welchon.com/upload/seasontheme/course/2024/10/486d8f77-aec7-4b41-9a9a-3d3ad0c05e97.png",
    "latitude": 36.48291942,
    "longitude": 127.7175754,
    "address": "충북 보은군 보은읍 삼산로5길 3",
    "description": ""
  },
  {
    "no": 101,
    "destinationName": "보은대추 축제",
    "photoFile": "https://www.welchon.com/upload/seasontheme/course/2024/10/5b2544ed-9be1-46e4-9d55-1c6214879ff0.png",
    "latitude": 36.48660975,
    "longitude": 127.7248689,
    "address": "충북 보은군 보은읍 뱃들로 47",
    "description": ""
  },
  {
    "no": 102,
    "destinationName": "속리산 숲체험 휴양마을",
    "photoFile": "https://www.welchon.com/upload/seasontheme/course/2024/10/f6c8e3a8-3569-46ad-a487-b0cf114fd893.png",
    "latitude": 36.49245548,
    "longitude": 127.7924742,
    "address": "충북 보은군 속리산면 속리산로 596",
    "description": ""
  },
  {
    "no": 103,
    "destinationName": "진도 이충무공 동상 스카이워크, 판옥선",
    "photoFile": "https://www.welchon.com/upload/seasontheme/course/2024/10/e08bc715-a821-44a4-b8d6-4f5b39a4e851.png",
    "latitude": 34.56966935,
    "longitude": 126.3007037,
    "address": "전남 진도군 군내면 진도대로 8475",
    "description": ""
  },
  {
    "no": 104,
    "destinationName": "제16회 명량대첩 축제",
    "photoFile": "https://www.welchon.com/upload/seasontheme/course/2024/10/8b92128a-471f-4e4a-8c2b-e55ad73f377f.png",
    "latitude": 34.56942157,
    "longitude": 126.3034818,
    "address": "전남 진도군 군내면 명량대첩로 7",
    "description": ""
  },
  {
    "no": 105,
    "destinationName": "식당 나루터",
    "photoFile": "https://www.welchon.com/upload/seasontheme/course/2024/10/7add9a5a-3faa-4fac-890a-98b273084183.png",
    "latitude": 34.57022204,
    "longitude": 126.2997326,
    "address": "전남 진도군 군내면 진도대로 8463",
    "description": ""
  },
  {
    "no": 106,
    "destinationName": "해남 우수영 문화마을",
    "photoFile": "https://www.welchon.com/upload/seasontheme/course/2024/10/9d558b74-4e33-47df-997e-21976fd8e55e.png",
    "latitude": 34.58842174,
    "longitude": 126.311487,
    "address": "전남 해남군 문내면 우수영안길 96",
    "description": ""
  },
  {
    "no": 107,
    "destinationName": "임실N치즈축제",
    "photoFile": "https://www.welchon.com/upload/seasontheme/course/2024/10/7a8ba961-94b2-4b99-b451-04cb53c49132.png",
    "latitude": 35.63312572,
    "longitude": 127.3012249,
    "address": "전북특별자치도 임실군 성수면 도인2길 50",
    "description": ""
  },
  {
    "no": 108,
    "destinationName": "카페 우유일기",
    "photoFile": "https://www.welchon.com/upload/seasontheme/course/2024/10/798da82f-df21-4d3f-966e-ecee8cf7ee7a.png",
    "latitude": 35.64120142,
    "longitude": 127.302514,
    "address": "전북특별자치도 임실군 임실읍 치즈마을2길 38",
    "description": ""
  },
  {
    "no": 109,
    "destinationName": "성가리마을",
    "photoFile": "https://www.welchon.com/upload/seasontheme/course/2024/10/d3001415-1caf-4955-94a3-a78d4d4425d0.png",
    "latitude": 35.61350063,
    "longitude": 127.2792772,
    "address": "전북특별자치도 임실군 임실읍 봉황로 144",
    "description": ""
  },
  {
    "no": 110,
    "destinationName": "치즈밸리참나무집",
    "photoFile": "https://www.welchon.com/upload/seasontheme/course/2024/10/ba2f6bd1-6cce-43c4-a27a-8cd0825fbded.png",
    "latitude": 35.63170251,
    "longitude": 127.3031264,
    "address": "전북특별자치도 임실군 성수면 도인2길 36",
    "description": ""
  },
  {
    "no": 111,
    "destinationName": "봉화닭실마을",
    "photoFile": "https://www.welchon.com/upload/seasontheme/course/2024/10/1e85f99b-d58c-4cb3-a322-3895aa20647a.png",
    "latitude": 36.90548863,
    "longitude": 128.7425676,
    "address": "경북 봉화군 봉화읍 충재길 60",
    "description": ""
  },
  {
    "no": 112,
    "destinationName": "솔봉이 식당",
    "photoFile": "https://www.welchon.com/upload/seasontheme/course/2024/10/bf2ae162-eaba-4af7-9571-e9967824938d.png",
    "latitude": 36.89000461,
    "longitude": 128.7390845,
    "address": "경북 봉화군 봉화읍 내성천1길 76-1",
    "description": ""
  },
  {
    "no": 113,
    "destinationName": "봉화송이축제",
    "photoFile": "https://www.welchon.com/upload/seasontheme/course/2024/10/9e345de3-1a9e-4f6f-822f-a10f713e5e68.png",
    "latitude": 36.8876394,
    "longitude": 128.7393208,
    "address": "경북 봉화군 봉화읍 내성로3길 9 / 봉화읍 체육공원, 송이산 일원",
    "description": ""
  },
  {
    "no": 114,
    "destinationName": "소도둑놈 산촌 생태 마을",
    "photoFile": "https://www.welchon.com/upload/seasontheme/course/2024/09/5dee111a-b0e5-4e45-9bb5-2a71f4d04d0f.png",
    "latitude": 37.64387161,
    "longitude": 128.5378831,
    "address": "강원특별자치도 평창군 진부면 경강로 3346-9",
    "description": ""
  },
  {
    "no": 115,
    "destinationName": "평창 88 송어횟집",
    "photoFile": "https://www.welchon.com/upload/seasontheme/course/2024/09/5b3f6a6f-02e3-402a-84bc-d217c09edd86.png",
    "latitude": 37.33890244,
    "longitude": 128.5031528,
    "address": "강원특별자치도 평창군 미탄면 서동로 3713-8",
    "description": ""
  },
  {
    "no": 116,
    "destinationName": "그리심 카페",
    "photoFile": "https://www.welchon.com/upload/seasontheme/course/2024/09/774a1580-df15-447b-9031-acbe70c186ae.png",
    "latitude": 37.36262602,
    "longitude": 128.3856955,
    "address": "강원특별자치도 평창군 평창읍 제방길 33-6",
    "description": ""
  },
  {
    "no": 117,
    "destinationName": "2024 평창 백일홍 축제",
    "photoFile": "https://www.welchon.com/upload/seasontheme/course/2024/09/4d8f1ab3-70b3-4ea7-8378-1de42442b8bb.png",
    "latitude": 37.36023066,
    "longitude": 128.3828388,
    "address": "강원특별자치도 평창군 평창읍 제방길 89",
    "description": ""
  },
  {
    "no": 118,
    "destinationName": "논개 생가 식당",
    "photoFile": "https://www.welchon.com/upload/seasontheme/course/2024/09/6787b0a1-7164-4408-9d98-10f96a40fd77.png",
    "latitude": 35.67922042,
    "longitude": 127.6212314,
    "address": "전북특별자치도 장수군 장계면 의암로 558",
    "description": ""
  },
  {
    "no": 119,
    "destinationName": "의암 주논개 생가지",
    "photoFile": "https://www.welchon.com/upload/seasontheme/course/2024/09/7778a38b-0c04-4ebc-afc0-dd4007f0bd0a.png",
    "latitude": 35.67922042,
    "longitude": 127.6212314,
    "address": "전북특별자치도 장수군 장계면 의암로 558",
    "description": ""
  },
  {
    "no": 120,
    "destinationName": "장수 도깨비 전시관",
    "photoFile": "https://www.welchon.com/upload/seasontheme/course/2024/09/b60a74f7-13e1-455c-9a87-40064be87c50.png",
    "latitude": 35.67771617,
    "longitude": 127.6218841,
    "address": "전북특별자치도 장수군 장계면 논개생가길 31-13",
    "description": ""
  },
  {
    "no": 121,
    "destinationName": "장수 한우랑 사과랑 축제",
    "photoFile": "https://www.welchon.com/upload/seasontheme/course/2024/09/531a9b24-aae1-4cd2-a099-1887b2f19c04.png",
    "latitude": 35.641078,
    "longitude": 127.5232574,
    "address": "전북특별자치도 장수군 장수읍 논개사당길 65",
    "description": ""
  },
  {
    "no": 122,
    "destinationName": "2024 괴산고추축제",
    "photoFile": "https://www.welchon.com/upload/seasontheme/course/2024/09/8292ae80-ee73-449c-a654-96745f1a8172.png",
    "latitude": 36.81491827,
    "longitude": 127.7855566,
    "address": "충북 괴산군 괴산읍 임꺽정로 104",
    "description": ""
  },
  {
    "no": 123,
    "destinationName": "청이랑콩이랑",
    "photoFile": "https://www.welchon.com/upload/seasontheme/course/2024/09/7472adc1-6754-41df-b864-db16f5e825dc.png",
    "latitude": 36.80908062,
    "longitude": 127.7911901,
    "address": "충북 괴산군 괴산읍 읍내로6길 27",
    "description": ""
  },
  {
    "no": 124,
    "destinationName": "해듬카페",
    "photoFile": "https://www.welchon.com/upload/seasontheme/course/2024/09/bad670f9-2437-4142-af11-beb96ca013e3.png",
    "latitude": 36.77263219,
    "longitude": 127.6473692,
    "address": "충북 괴산군 청안면 청안읍내로1길 81-13",
    "description": ""
  },
  {
    "no": 125,
    "destinationName": "서천 해물칼국수",
    "photoFile": "https://www.welchon.com/upload/seasontheme/course/2024/08/342d5119-0b6b-49ef-a08d-1252382684c8.png",
    "latitude": 36.07630642,
    "longitude": 126.6843168,
    "address": "충남 서천군 서천읍 충절로 11",
    "description": ""
  },
  {
    "no": 126,
    "destinationName": "장항 맥문동 꽃 축제",
    "photoFile": "https://www.welchon.com/upload/seasontheme/course/2024/08/6377941d-a782-40bd-abca-35815f3ad333.png",
    "latitude": 36.01843929,
    "longitude": 126.6655625,
    "address": "충남 서천군 장항읍 장항산단로34번길 122-16",
    "description": ""
  },
  {
    "no": 127,
    "destinationName": "판교 시간이 멈춘 마을",
    "photoFile": "https://www.welchon.com/upload/seasontheme/course/2024/08/e361ecf5-999a-40ca-bfc9-139e5cdbc113.png",
    "latitude": 36.15780507,
    "longitude": 126.6890963,
    "address": "충남 서천군 판교면 종판로901번길 45",
    "description": ""
  },
  {
    "no": 128,
    "destinationName": "장항 스카이워크 전망대",
    "photoFile": "https://www.welchon.com/upload/seasontheme/course/2024/08/0914245b-5ac4-4a86-bce6-03a8d7f1a4a1.png",
    "latitude": 36.01843929,
    "longitude": 126.6655625,
    "address": "충남 서천군 장항읍 장항산단로34번길 122-16",
    "description": ""
  },
  {
    "no": 129,
    "destinationName": "예천한우식육식당",
    "photoFile": "https://www.welchon.com/upload/seasontheme/course/2024/08/8b2a8634-63db-4e6d-aa5b-fc0814b30c8d.png",
    "latitude": 36.65141706,
    "longitude": 128.4539356,
    "address": "경북 예천군 예천읍 충효로 273",
    "description": ""
  },
  {
    "no": 130,
    "destinationName": "예천 곤충생태원(2024 예천곤충축제)",
    "photoFile": "https://www.welchon.com/upload/seasontheme/course/2024/08/2e5bb335-69d5-406f-8075-cc8b3643ca47.png",
    "latitude": 36.82510164,
    "longitude": 128.4619768,
    "address": "경북 예천군 효자면 은풍로 1076-38",
    "description": ""
  },
  {
    "no": 131,
    "destinationName": "한천체육공원(2024 예천곤충축제)",
    "photoFile": "https://www.welchon.com/upload/seasontheme/course/2024/08/aabacd49-39d2-4e01-a683-578674a01d9e.png",
    "latitude": 36.65576351,
    "longitude": 128.4515533,
    "address": "경북 예천군 예천읍 효자로 68",
    "description": ""
  },
  {
    "no": 132,
    "destinationName": "금당실전통마을",
    "photoFile": "https://www.welchon.com/upload/seasontheme/course/2024/08/33cc020b-2217-42bc-a988-d3bcc2ca8d9b.png",
    "latitude": 36.69348163,
    "longitude": 128.4102977,
    "address": "경북 예천군 용문면 금당실길 118-32",
    "description": ""
  },
  {
    "no": 133,
    "destinationName": "덕고 정보화마을",
    "photoFile": "https://www.welchon.com/upload/seasontheme/course/2024/08/ac71ebc8-2e93-4b13-88d3-84ef670039a5.png",
    "latitude": 37.47349064,
    "longitude": 128.0208525,
    "address": "강원특별자치도 횡성군 횡성읍 덕고로 410",
    "description": ""
  },
  {
    "no": 134,
    "destinationName": "둔내 고랭지 토마토 축제",
    "photoFile": "https://www.welchon.com/upload/seasontheme/course/2024/08/29be3655-a020-44b8-940b-909ee0d89e4c.png",
    "latitude": 37.51671968,
    "longitude": 128.2137117,
    "address": "강원특별자치도 횡성군 둔내면 경강로 4708",
    "description": ""
  },
  {
    "no": 135,
    "destinationName": "태백 해바라기 축제",
    "photoFile": "https://www.welchon.com/upload/seasontheme/course/2024/08/be3d3bee-c4c0-4a85-af07-3dc2fee85bc5.png",
    "latitude": 37.20692099,
    "longitude": 128.9896998,
    "address": "강원특별자치도 태백시 구와우길 38-20 (황지동)",
    "description": ""
  },
  {
    "no": 136,
    "destinationName": "구문소마을",
    "photoFile": "https://www.welchon.com/upload/seasontheme/course/2024/08/64787c53-09d1-4fe9-b3ab-d8e19b5aa5d4.png",
    "latitude": 37.09324559,
    "longitude": 129.0379765,
    "address": "강원특별자치도 태백시 사군드리길 7 (동점동)",
    "description": ""
  },
  {
    "no": 137,
    "destinationName": "태백석탄박물관",
    "photoFile": "https://www.welchon.com/upload/seasontheme/course/2024/08/9b7bc785-3d70-406c-815d-17d96b75ed7c.png",
    "latitude": 37.11723203,
    "longitude": 128.950564,
    "address": "강원특별자치도 태백시 천제단길 195 (소도동)",
    "description": ""
  },
  {
    "no": 138,
    "destinationName": "정남진 장흥 토요시장",
    "photoFile": "https://www.welchon.com/upload/seasontheme/course/2024/08/f6db2138-59ee-4703-9e58-9868462d00df.png",
    "latitude": 34.67697917,
    "longitude": 126.9029058,
    "address": "전남 장흥군 장흥읍 토요시장1길 53",
    "description": ""
  },
  {
    "no": 139,
    "destinationName": "장흥 물축제",
    "photoFile": "https://www.welchon.com/upload/seasontheme/course/2024/08/24f90f80-73f3-4ebb-8648-0a9a3396722d.png",
    "latitude": 34.66960327,
    "longitude": 126.9336691,
    "address": "전남 장흥군 장흥읍 우드랜드길 180",
    "description": ""
  },
  {
    "no": 140,
    "destinationName": "정남진 편백숲 우드랜드",
    "photoFile": "https://www.welchon.com/upload/seasontheme/course/2024/08/e88e1091-391f-4fc6-aa2e-30df8d5d2f23.png",
    "latitude": 34.66960327,
    "longitude": 126.9336691,
    "address": "전남 장흥군 장흥읍 우드랜드길 180",
    "description": ""
  },
  {
    "no": 141,
    "destinationName": "장수풍뎅이마을",
    "photoFile": "https://www.welchon.com/upload/seasontheme/course/2024/08/16232c3e-1281-4a75-9137-5958926b23a7.png",
    "latitude": 34.80028002,
    "longitude": 126.8326018,
    "address": "전남 장흥군 유치면 반월길 11",
    "description": ""
  },
  {
    "no": 142,
    "destinationName": "우천 바리안 마을",
    "photoFile": "https://www.welchon.com/upload/seasontheme/course/2024/07/0542d63b-4ab9-4dc4-9eb0-ca11743ad48f.png",
    "latitude": 35.03444746,
    "longitude": 128.1175952,
    "address": "경남 사천시 사남면 사남로 587",
    "description": ""
  },
  {
    "no": 143,
    "destinationName": "사천 케이블카 자연휴양림",
    "photoFile": "https://www.welchon.com/upload/seasontheme/course/2024/07/d5ba309f-60a6-4979-8fdc-c3bee76cfd9b.png",
    "latitude": 34.95016897,
    "longitude": 128.0576107,
    "address": "경남 사천시 실안길 242-45 (실안동)",
    "description": ""
  },
  {
    "no": 144,
    "destinationName": "별주부전테마파크",
    "photoFile": "https://www.welchon.com/upload/seasontheme/course/2024/07/819cc092-d8a5-49f6-906c-2b38c1fa34a3.png",
    "latitude": 34.96805554,
    "longitude": 127.9820772,
    "address": "경남 사천시 서포면 용궁로 132",
    "description": ""
  },
  {
    "no": 145,
    "destinationName": "남일대해수욕장",
    "photoFile": "https://www.welchon.com/upload/seasontheme/course/2024/07/0dc77d7a-de21-4d7c-a20c-badd5d22e2b2.png",
    "latitude": 34.92795521,
    "longitude": 128.0980257,
    "address": "경남 사천시 모례2길 11-19 (향촌동)",
    "description": ""
  },
  {
    "no": 146,
    "destinationName": "양촌 여울 체험마을",
    "photoFile": "https://www.welchon.com/upload/seasontheme/course/2024/07/ccafea2b-f274-4864-baf9-ea243b04e76c.png",
    "latitude": 35.13650766,
    "longitude": 128.3752829,
    "address": "경남 창원시 마산합포구 진전면 의산삼일로 60",
    "description": ""
  },
  {
    "no": 147,
    "destinationName": "로봇랜드",
    "photoFile": "https://www.welchon.com/upload/seasontheme/course/2024/07/983b2370-ba45-4c95-97fc-2c7a4a9e6b99.png",
    "latitude": 35.07685147,
    "longitude": 128.5870543,
    "address": "경남 창원시 마산합포구 구산면 로봇랜드로 250",
    "description": ""
  },
  {
    "no": 148,
    "destinationName": "해양드라마 세트장",
    "photoFile": "https://www.welchon.com/upload/seasontheme/course/2024/07/ad04b140-c4ef-45d7-9444-91fdadff56f7.png",
    "latitude": 35.10921787,
    "longitude": 128.5614696,
    "address": "경남 창원시 마산합포구 구산면 석곡로 252-106",
    "description": ""
  },
  {
    "no": 149,
    "destinationName": "한우 산애 천하장사 체험 마을 캠핑장",
    "photoFile": "https://www.welchon.com/upload/seasontheme/course/2024/07/2647e158-d039-42a4-8dad-b2a329e40300.png",
    "latitude": 35.3816774,
    "longitude": 128.1758835,
    "address": "경남 의령군 대의면 모의로 662-24",
    "description": ""
  },
  {
    "no": 150,
    "destinationName": "의령 전통시장",
    "photoFile": "https://www.welchon.com/upload/seasontheme/course/2024/07/ba2590df-8861-4afb-896d-21040432e916.png",
    "latitude": 35.31981758,
    "longitude": 128.2598193,
    "address": "경남 의령군 의령읍 의병로17길 3-1",
    "description": ""
  },
  {
    "no": 151,
    "destinationName": "아열대 식물원",
    "photoFile": "https://www.welchon.com/upload/seasontheme/course/2024/07/9c6211b1-253e-4ad1-9cc0-b4ec99a70cea.png",
    "latitude": 35.32391298,
    "longitude": 128.2807424,
    "address": "경남 의령군 의령읍 백산로 160-1",
    "description": ""
  },
  {
    "no": 152,
    "destinationName": "달빛무월마을",
    "photoFile": "https://www.welchon.com/upload/seasontheme/course/2024/07/8231a9b4-8187-4571-9320-dad749bb521b.png",
    "latitude": 35.26627003,
    "longitude": 127.0392784,
    "address": "전남 담양군 대덕면 무월길 2",
    "description": ""
  },
  {
    "no": 153,
    "destinationName": "한국 대나무 박물관",
    "photoFile": "https://www.welchon.com/upload/seasontheme/course/2024/07/a577217f-6882-41dd-9e6e-df0507024f1c.png",
    "latitude": 35.30934367,
    "longitude": 126.9764088,
    "address": "전남 담양군 담양읍 죽향문화로 35",
    "description": ""
  },
  {
    "no": 154,
    "destinationName": "창평 전통시장",
    "photoFile": "https://www.welchon.com/upload/seasontheme/course/2024/07/30397464-668a-4d06-8a11-f62905f8a16c.png",
    "latitude": 35.23815063,
    "longitude": 127.0147646,
    "address": "전남 담양군 창평면 사동길 14-24",
    "description": ""
  },
  {
    "no": 155,
    "destinationName": "거창 창포원",
    "photoFile": "https://www.welchon.com/upload/seasontheme/course/2024/07/70b5ebd3-ae85-41ca-99f6-6ebd85d8e00d.png",
    "latitude": 35.65495682,
    "longitude": 127.939573,
    "address": "경남 거창군 남상면 창포원길 21-1",
    "description": ""
  },
  {
    "no": 156,
    "destinationName": "거창 항노화 힐링랜드",
    "photoFile": "https://www.welchon.com/upload/seasontheme/course/2024/07/bbc089fc-18a8-4610-8315-2724fb9eac2a.png",
    "latitude": 35.73647902,
    "longitude": 128.0410929,
    "address": "경남 거창군 가조면 의상봉길 832",
    "description": ""
  },
  {
    "no": 157,
    "destinationName": "가남 체험 휴양마을(허브 빌리지)",
    "photoFile": "https://www.welchon.com/upload/seasontheme/course/2024/07/f3ba79e0-5cdb-48cb-99b7-109de8dfc007.png",
    "latitude": 35.6882879,
    "longitude": 128.0221595,
    "address": "경남 거창군 가조면 지산로 1242",
    "description": ""
  },
  {
    "no": 158,
    "destinationName": "중앙체육공원",
    "photoFile": "https://www.welchon.com/upload/seasontheme/course/2024/06/82830ef0-3d33-43f8-83bf-9908d084830d.png",
    "latitude": 35.9497313,
    "longitude": 126.9861273,
    "address": "전북특별자치도 익산시 하나로 322 (어양동)",
    "description": ""
  },
  {
    "no": 159,
    "destinationName": "용안 생태습지공원",
    "photoFile": "https://www.welchon.com/upload/seasontheme/course/2024/06/f37a5b57-e381-43d4-b5dd-40b35d63d51c.png",
    "latitude": 36.11964949,
    "longitude": 126.9524295,
    "address": "전북특별자치도 익산시 용안면 용안교동1길 21",
    "description": ""
  },
  {
    "no": 160,
    "destinationName": "다송 무지개 매화마을",
    "photoFile": "https://www.welchon.com/upload/seasontheme/course/2024/06/f8dfa875-cce3-4011-9796-6544149cb4ab.png",
    "latitude": 36.03767069,
    "longitude": 126.9565559,
    "address": "전북특별자치도 익산시 함열읍 익산대로 1324-21",
    "description": ""
  },
  {
    "no": 161,
    "destinationName": "카페 그르르",
    "photoFile": "https://www.welchon.com/upload/seasontheme/course/2024/06/cfdd8aa8-830e-4d19-9e09-8c36ecffdc1b.png",
    "latitude": 35.97149373,
    "longitude": 127.0253781,
    "address": "전북특별자치도 익산시 무왕로 1543 (석왕동)",
    "description": ""
  },
  {
    "no": 162,
    "destinationName": "무안황토 갯벌 랜드",
    "photoFile": "https://www.welchon.com/upload/seasontheme/course/2024/06/b5d9c70f-df08-4889-896a-6d71fb2e0b77.png",
    "latitude": 35.09590598,
    "longitude": 126.3297013,
    "address": "전남 무안군 해제면 만송로 34",
    "description": ""
  },
  {
    "no": 163,
    "destinationName": "밀리터리 테마파크",
    "photoFile": "https://www.welchon.com/upload/seasontheme/course/2024/06/393267e3-4bce-4b9c-a3dd-099aa7171860.png",
    "latitude": 35.99772888,
    "longitude": 127.6548689,
    "address": "전북특별자치도 무주군 무주읍 우명길 21",
    "description": ""
  },
  {
    "no": 164,
    "destinationName": "두암 식당",
    "photoFile": "https://www.welchon.com/upload/seasontheme/course/2024/06/d139a747-9bf1-4363-ade2-58944865d19d.png",
    "latitude": 34.965458,
    "longitude": 126.5189457,
    "address": "전남 무안군 몽탄면 우명길 52",
    "description": ""
  },
  {
    "no": 165,
    "destinationName": "웰선 체험 치유마을",
    "photoFile": "https://www.welchon.com/upload/seasontheme/course/2024/06/2d5ba770-626c-49f9-bb3c-c7c17ebe441c.png",
    "latitude": 34.89200096,
    "longitude": 126.4563092,
    "address": "전남 무안군 청계면 예술촌길 148",
    "description": ""
  },
  {
    "no": 166,
    "destinationName": "모래시계 공원",
    "photoFile": "https://www.welchon.com/upload/seasontheme/course/2024/06/a1b68720-bc90-4483-83c0-a43f85f7ee4a.png",
    "latitude": 37.6872532,
    "longitude": 129.0376643,
    "address": "강원특별자치도 강릉시 강동면 헌화로 990",
    "description": ""
  },
  {
    "no": 167,
    "destinationName": "송담 서원",
    "photoFile": "https://www.welchon.com/upload/seasontheme/course/2024/06/9b832ec2-fc50-4f43-abba-4dcfcaa96d2c.png",
    "latitude": 37.69295824,
    "longitude": 128.9291863,
    "address": "강원특별자치도 강릉시 강동면 송담서원길 27-7",
    "description": ""
  },
  {
    "no": 168,
    "destinationName": "정감이마을",
    "photoFile": "https://www.welchon.com/upload/seasontheme/course/2024/06/285350fb-3474-41b7-8298-3d3b0aaa7b74.png",
    "latitude": 37.71684585,
    "longitude": 128.9559449,
    "address": "강원특별자치도 강릉시 강동면 둔지길 81",
    "description": ""
  },
  {
    "no": 169,
    "destinationName": "정동 심곡 바다부채길",
    "photoFile": "https://www.welchon.com/upload/seasontheme/course/2024/06/37afc0e7-44b5-4325-8fc1-58bc23990eae.png",
    "latitude": 37.68406187,
    "longitude": 129.0419045,
    "address": "강원특별자치도 강릉시 강동면 헌화로 950-39",
    "description": ""
  },
  {
    "no": 170,
    "destinationName": "혼불 문학관, 혼불문학마을",
    "photoFile": "https://www.welchon.com/upload/seasontheme/course/2024/06/147b830e-dd62-416d-8239-515cda6a8c95.png",
    "latitude": 35.48109815,
    "longitude": 127.3200256,
    "address": "전북특별자치도 남원시 사매면 노봉안길 52",
    "description": ""
  },
  {
    "no": 171,
    "destinationName": "광한루원 , 신관사또부임행차",
    "photoFile": "https://www.welchon.com/upload/seasontheme/course/2024/06/2804316f-188d-4d3c-87b7-5ff2cc3a7b44.png",
    "latitude": 35.40413183,
    "longitude": 127.3805035,
    "address": "전북특별자치도 남원시 요천로 1447 (천거동)",
    "description": ""
  },
  {
    "no": 172,
    "destinationName": "춘향테마파크",
    "photoFile": "https://www.welchon.com/upload/seasontheme/course/2024/06/081df0d4-20ba-471b-8bd9-2630b8a0e892.png",
    "latitude": 35.40248086,
    "longitude": 127.3861367,
    "address": "전북특별자치도 남원시 양림길 12 (어현동)",
    "description": ""
  },
  {
    "no": 173,
    "destinationName": "남원요천 벚꽃길",
    "photoFile": "https://www.welchon.com/upload/seasontheme/course/2024/06/5afd5550-7dff-447c-8729-a83a54d52247.png",
    "latitude": 35.39955186,
    "longitude": 127.3803379,
    "address": "전북특별자치도 남원시 소리길 10 (노암동)",
    "description": ""
  },
  {
    "no": 174,
    "destinationName": "광한루원 야경,  월매집 국악공연",
    "photoFile": "https://www.welchon.com/upload/seasontheme/course/2024/06/efb99a05-c4b4-40b1-aa27-e6f7ae793708.png",
    "latitude": 35.40413183,
    "longitude": 127.3805035,
    "address": "전북특별자치도 남원시 요천로 1447 (천거동)",
    "description": ""
  },
  {
    "no": 175,
    "destinationName": "구 서도역 영상촬영장",
    "photoFile": "https://www.welchon.com/upload/seasontheme/course/2024/06/1a910506-978f-4040-a7c5-e416cfbbb692.png",
    "latitude": 35.48981921,
    "longitude": 127.330616,
    "address": "전북특별자치도 남원시 사매면 서도길 32",
    "description": ""
  },
  {
    "no": 176,
    "destinationName": "월광 포차",
    "photoFile": "https://www.welchon.com/upload/seasontheme/course/2024/06/2402056b-f73c-4be1-83e6-bb59850c49ae.png",
    "latitude": 35.40297998,
    "longitude": 127.3778225,
    "address": "전북특별자치도 남원시 광한서로 21 (금동)",
    "description": ""
  },
  {
    "no": 177,
    "destinationName": "김녕금속공예벽화마을",
    "photoFile": "https://www.welchon.com/upload/seasontheme/course/2024/05/787e0b52-67d9-45c1-a550-57db43dc2cfa.png",
    "latitude": 33.55793081,
    "longitude": 126.7465076,
    "address": "제주특별자치도 제주시 구좌읍 김녕항3길 18-16",
    "description": ""
  },
  {
    "no": 178,
    "destinationName": "월정리 해수욕장",
    "photoFile": "https://www.welchon.com/upload/seasontheme/course/2024/05/50da33a1-d9a3-4221-9491-30073973337a.png",
    "latitude": 33.55462335,
    "longitude": 126.7983763,
    "address": "제주특별자치도 제주시 구좌읍 해맞이해안로 480-1",
    "description": ""
  },
  {
    "no": 179,
    "destinationName": "큰엉해안경승지",
    "photoFile": "https://www.welchon.com/upload/seasontheme/course/2024/05/72576fca-a81d-487d-8340-0c553da1c2f4.png",
    "latitude": 33.27334981,
    "longitude": 126.7037119,
    "address": "제주특별자치도 서귀포시 남원읍 태위로 522-17",
    "description": ""
  },
  {
    "no": 180,
    "destinationName": "우도",
    "photoFile": "https://www.welchon.com/upload/seasontheme/course/2024/05/901bad7c-3631-4785-a8b5-cbb9dc67a45d.png",
    "latitude": 33.51482083,
    "longitude": 126.9687619,
    "address": "제주특별자치도 제주시 우도면 안비양길 47-3",
    "description": ""
  },
  {
    "no": 181,
    "destinationName": "태화강국가정원",
    "photoFile": "https://www.welchon.com/upload/seasontheme/course/2024/05/faa851ad-ea72-4628-9e98-57d06c20725b.png",
    "latitude": 35.55515004,
    "longitude": 129.2761552,
    "address": "울산 중구 태화강국가정원길 1 (태화동)",
    "description": ""
  },
  {
    "no": 182,
    "destinationName": "복순도가와 카페 농도",
    "photoFile": "https://www.welchon.com/upload/seasontheme/course/2024/05/e64a4e4c-4650-4755-87e0-e6c3e3f9041e.png",
    "latitude": 35.58578161,
    "longitude": 129.096948,
    "address": "울산 울주군 상북면 향산동길 48",
    "description": ""
  },
  {
    "no": 183,
    "destinationName": "자수정동굴나라",
    "photoFile": "https://www.welchon.com/upload/seasontheme/course/2024/05/bb472dab-c13a-4f59-b6b6-033ac753b123.png",
    "latitude": 35.54711993,
    "longitude": 129.0928046,
    "address": "울산 울주군 상북면 자수정로 212",
    "description": ""
  },
  {
    "no": 184,
    "destinationName": "대왕암공원",
    "photoFile": "https://www.welchon.com/upload/seasontheme/course/2024/05/3b418111-db1b-47bb-981f-c7ad02700ba4.jpg",
    "latitude": 35.49095677,
    "longitude": 129.4394003,
    "address": "울산 동구 등대로 110 (일산동)",
    "description": ""
  },
  {
    "no": 185,
    "destinationName": "한반도뗏목마을",
    "photoFile": "https://www.welchon.com/upload/seasontheme/course/2024/05/27b8b34d-8ca6-46a9-b21a-7d9c59ca12e1.png",
    "latitude": 37.21987613,
    "longitude": 128.3575285,
    "address": "강원특별자치도 영월군 한반도면 한반도로 555",
    "description": ""
  },
  {
    "no": 186,
    "destinationName": "젊은달와이파크",
    "photoFile": "https://www.welchon.com/upload/seasontheme/course/2024/05/c1183944-a210-4808-a740-1faf93ffc2c5.png",
    "latitude": 37.27395628,
    "longitude": 128.2692495,
    "address": "강원특별자치도 영월군 주천면 송학주천로 1467-9",
    "description": ""
  },
  {
    "no": 187,
    "destinationName": "몽토랑산양목장",
    "photoFile": "https://www.welchon.com/upload/seasontheme/course/2024/05/116b5629-2d3e-4c60-b0e2-ab92e45c5fb1.png",
    "latitude": 37.18194586,
    "longitude": 128.9641515,
    "address": "강원특별자치도 태백시 효자1길 27-2 (화전동)",
    "description": ""
  },
  {
    "no": 188,
    "destinationName": "태백고생대자연사박물관",
    "photoFile": "https://www.welchon.com/upload/seasontheme/course/2024/05/f6aeec40-4c13-495a-a1e4-1480950dcf42.png",
    "latitude": 37.09484864,
    "longitude": 129.0397121,
    "address": "강원특별자치도 태백시 태백로 2249 (동점동)",
    "description": ""
  },
  {
    "no": 189,
    "destinationName": "별마로천문대",
    "photoFile": "https://www.welchon.com/upload/seasontheme/course/2024/05/922918ec-b832-4c53-8a75-5d290ccfa830.png",
    "latitude": 37.19943525,
    "longitude": 128.4857285,
    "address": "강원특별자치도 영월군 영월읍 천문대길 397",
    "description": ""
  },
  {
    "no": 190,
    "destinationName": "보성여관",
    "photoFile": "https://www.welchon.com/upload/seasontheme/course/2024/05/dfc69131-7373-4f7a-9937-f3955a0df2a9.png",
    "latitude": 34.84384599,
    "longitude": 127.3432515,
    "address": "전남 보성군 벌교읍 태백산맥길 19",
    "description": ""
  },
  {
    "no": 191,
    "destinationName": "동편제마을",
    "photoFile": "https://www.welchon.com/upload/seasontheme/course/2024/05/98f362ef-cf6d-4a4b-ad19-cbd9873c9369.jpg",
    "latitude": 35.45754402,
    "longitude": 127.5626831,
    "address": "전북특별자치도 남원시 운봉읍 비전길 7",
    "description": ""
  },
  {
    "no": 192,
    "destinationName": "남원 혼불문학마을",
    "photoFile": "https://www.welchon.com/upload/seasontheme/course/2024/05/86dcf26e-7ae8-4290-ae09-40f683b63dd4.png",
    "latitude": 35.48109815,
    "longitude": 127.3200256,
    "address": "전북특별자치도 남원시 사매면 노봉안길 52",
    "description": ""
  },
  {
    "no": 193,
    "destinationName": "월곡영화골 벽화마을",
    "photoFile": "https://www.welchon.com/upload/seasontheme/course/2024/05/e277197f-0020-4ccb-8a42-fb72bd98a038.png",
    "latitude": 34.84561379,
    "longitude": 127.3416295,
    "address": "전남 보성군 벌교읍 월곡길 18-31",
    "description": ""
  },
  {
    "no": 194,
    "destinationName": "오두산통일전망대",
    "photoFile": "https://www.welchon.com/upload/seasontheme/course/2024/05/d15c7630-99df-4e8e-a2c0-45d2b876ef36.png",
    "latitude": 37.77306925,
    "longitude": 126.67709,
    "address": "경기 파주시 탄현면 필승로 369",
    "description": ""
  },
  {
    "no": 195,
    "destinationName": "철원역사문화공원",
    "photoFile": "https://www.welchon.com/upload/seasontheme/course/2024/05/88a073e1-730f-43fb-8524-ffa7ee4c129a.png",
    "latitude": 38.25594689,
    "longitude": 127.1998324,
    "address": "강원특별자치도 철원군 철원읍 금강산로 262",
    "description": ""
  },
  {
    "no": 196,
    "destinationName": "두루미평화마을",
    "photoFile": "https://www.welchon.com/upload/seasontheme/course/2024/05/41a4b973-ac35-49f6-8e62-4eabb87f2618.png",
    "latitude": 38.26217107,
    "longitude": 127.1647227,
    "address": "강원특별자치도 철원군 철원읍 대마길 38",
    "description": ""
  },
  {
    "no": 197,
    "destinationName": "임진각 평화누리공원",
    "photoFile": "https://www.welchon.com/upload/seasontheme/course/2024/05/695f32ee-dd26-4ce0-a800-d938a010ae50.png",
    "latitude": 37.89042994,
    "longitude": 126.7403768,
    "address": "경기 파주시 문산읍 임진각로 148-53",
    "description": ""
  },
  {
    "no": 198,
    "destinationName": "상가리야자숲",
    "photoFile": "https://www.welchon.com/upload/seasontheme/course/2024/05/347f6d89-a923-4b1d-b9ed-c8c1d4e4dec3.jpg",
    "latitude": 33.43943561,
    "longitude": 126.3584778,
    "address": "제주특별자치도 제주시 애월읍 고하상로 326",
    "description": ""
  },
  {
    "no": 199,
    "destinationName": "화조원",
    "photoFile": "https://www.welchon.com/upload/seasontheme/course/2024/05/4b681b05-450c-4a68-b841-1e4b05656be8.jpg",
    "latitude": 33.41130804,
    "longitude": 126.3720052,
    "address": "제주특별자치도 제주시 애월읍 애원로 804",
    "description": ""
  },
  {
    "no": 200,
    "destinationName": "제주도 풋감마을",
    "photoFile": "https://www.welchon.com/upload/seasontheme/course/2024/05/d314f35b-9ed4-453d-aced-2929fb5234dc.jpg",
    "latitude": 33.44049698,
    "longitude": 126.380181,
    "address": "제주특별자치도 제주시 애월읍 소길1길 11",
    "description": ""
  },
  {
    "no": 201,
    "destinationName": "금능석물원",
    "photoFile": "https://www.welchon.com/upload/seasontheme/course/2024/05/707c1de2-4708-452d-b364-697f2b7cc793.jpg",
    "latitude": 33.38469164,
    "longitude": 126.2267365,
    "address": "제주특별자치도 제주시 한림읍 한림로 176",
    "description": ""
  },
  {
    "no": 202,
    "destinationName": "서귀포 가시리마을",
    "photoFile": "https://www.welchon.com/upload/seasontheme/course/2024/05/0360275c-2929-4c3d-b402-2804b9cb4d9d.jpg",
    "latitude": 33.35463167,
    "longitude": 126.7705982,
    "address": "제주특별자치도 서귀포시 표선면 가시로613번길 54-14",
    "description": ""
  },
  {
    "no": 203,
    "destinationName": "대포주상절리",
    "photoFile": "https://www.welchon.com/upload/seasontheme/course/2024/05/947bbacd-4c17-4fe3-8cd4-257835e40568.jpg",
    "latitude": 33.23890364,
    "longitude": 126.4264867,
    "address": "제주특별자치도 서귀포시 이어도로 36-24 (중문동)",
    "description": ""
  },
  {
    "no": 204,
    "destinationName": "안덕계곡",
    "photoFile": "https://www.welchon.com/upload/seasontheme/course/2024/05/cc5dbafc-c98c-4abd-bf31-0142ae9367c9.jpg",
    "latitude": 33.25015602,
    "longitude": 126.3468216,
    "address": "제주특별자치도 서귀포시 안덕면 서안골로 111",
    "description": ""
  },
  {
    "no": 205,
    "destinationName": "답다니수국",
    "photoFile": "https://www.welchon.com/upload/seasontheme/course/2024/05/ffa84cb6-96d2-4e28-9526-4e9a5e7037d7.jpg",
    "latitude": 33.24383867,
    "longitude": 126.4642332,
    "address": "제주특별자치도 서귀포시 월평로50번길 17-30 (월평동)",
    "description": ""
  },
  {
    "no": 206,
    "destinationName": "삼성현역사문화공원",
    "photoFile": "https://www.welchon.com/upload/seasontheme/course/2024/05/41a1828b-6ea5-40c9-8981-20ff3bde4290.jpg",
    "latitude": 35.80168833,
    "longitude": 128.7966116,
    "address": "경북 경산시 남산면 삼성현공원로 59",
    "description": ""
  },
  {
    "no": 207,
    "destinationName": "정읍시립박물관",
    "photoFile": "https://www.welchon.com/upload/seasontheme/course/2024/05/aeeeeb1c-5a30-4740-a8a7-5f751a2cf9ea.png",
    "latitude": 35.52787523,
    "longitude": 126.8944068,
    "address": "전북특별자치도 정읍시 내장산로 370-12 (부전동)",
    "description": ""
  },
  {
    "no": 208,
    "destinationName": "태산선비마을",
    "photoFile": "https://www.welchon.com/upload/seasontheme/course/2024/05/b83b1aa1-fff0-4873-9ff7-86b06915cb5f.png",
    "latitude": 35.60291476,
    "longitude": 126.988577,
    "address": "전북특별자치도 정읍시 칠보면 칠보산로 1507",
    "description": ""
  },
  {
    "no": 209,
    "destinationName": "경산시립박물관",
    "photoFile": "https://www.welchon.com/upload/seasontheme/course/2024/05/968832d6-c882-444a-aee6-33b3f78703dd.png",
    "latitude": 35.81398388,
    "longitude": 128.763123,
    "address": "경북 경산시 박물관로 46 (사동)",
    "description": ""
  },
  {
    "no": 210,
    "destinationName": "천하장사골센터 마을",
    "photoFile": "https://www.welchon.com/upload/seasontheme/course/2024/05/b624cca9-3fdd-495c-81ba-b4fb2e23560c.jpg",
    "latitude": 35.3816774,
    "longitude": 128.1758835,
    "address": "경남 의령군 대의면 모의로 662-24",
    "description": "천하장사의 기운이 넘치는 마을"
  },
  {
    "no": 211,
    "destinationName": "의령곤충생태학습관",
    "photoFile": "https://www.welchon.com/upload/seasontheme/course/2024/05/7f7ebed2-19f3-40e4-8e3f-bea0fe4fcaba.jpg",
    "latitude": 35.31928658,
    "longitude": 128.28434,
    "address": "경남 의령군 의령읍 의합대로 28",
    "description": "의령의 재미있는 곤충놀이터"
  },
  {
    "no": 212,
    "destinationName": "의병박물관",
    "photoFile": "https://www.welchon.com/upload/seasontheme/course/2024/05/a13fb4e7-10fa-46e1-8f88-9fc2b1ea625d.jpg",
    "latitude": 35.31468768,
    "longitude": 128.2594298,
    "address": "경남 의령군 의령읍 충익로 1-25",
    "description": "의령의 자랑 곽재우 장군부터 역사까지"
  },
  {
    "no": 213,
    "destinationName": "솥바위",
    "photoFile": "https://www.welchon.com/upload/seasontheme/course/2024/05/c9998e27-3213-48aa-962b-eb598fab7d7a.jpg",
    "latitude": 35.31646019,
    "longitude": 128.2958053,
    "address": "경남 의령군 의령읍 남강로7길 41-28",
    "description": "봄바람 실어 날리는 간절한 바람"
  },
  {
    "no": 214,
    "destinationName": "진주 가뫼골마을",
    "photoFile": "https://www.welchon.com/upload/seasontheme/course/2024/05/48543d7d-262e-4cb6-9b92-7f1a0df6aaf1.jpg",
    "latitude": 35.25863962,
    "longitude": 128.0323639,
    "address": "경남 진주시 명석면 관덕길 174",
    "description": "숲 속에 숨은 진주 같은 마을"
  },
  {
    "no": 215,
    "destinationName": "진주남강유등전시관",
    "photoFile": "https://www.welchon.com/upload/seasontheme/course/2024/05/303a7876-bd03-4893-a0b4-7585b51f958e.jpg",
    "latitude": 35.1821421,
    "longitude": 128.0773489,
    "address": "경남 진주시 망경로 207 (망경동)",
    "description": "유등을 한 자리에서 만날 수 있는"
  },
  {
    "no": 216,
    "destinationName": "진주박물관",
    "photoFile": "https://www.welchon.com/upload/seasontheme/course/2024/05/852b538f-23ef-40ba-8633-7dafe72f4380.jpg",
    "latitude": 35.1890137,
    "longitude": 128.0768441,
    "address": "경남 진주시 남강로 626-35 (남성동)",
    "description": "임진왜란의 역사를 고스란히 간직한"
  },
  {
    "no": 217,
    "destinationName": "월아산 숲속의 진주",
    "photoFile": "https://www.welchon.com/upload/seasontheme/course/2024/05/dbe0fc9c-f3ec-4943-9092-3ce1878774ba.jpg",
    "latitude": 35.199915,
    "longitude": 128.1941256,
    "address": "경남 진주시 진성면 달음산로 313",
    "description": "산림휴양을 즐길 수 있는"
  },
  {
    "no": 218,
    "destinationName": "함양박물관",
    "photoFile": "https://www.welchon.com/upload/seasontheme/course/2024/05/f7d469e5-9c70-4c46-ab7c-f1c0ed5ab845.jpg",
    "latitude": 35.52471022,
    "longitude": 127.7222727,
    "address": "경남 함양군 함양읍 필봉산길 55",
    "description": "함양의 역사와 현재를 간직한"
  },
  {
    "no": 219,
    "destinationName": "카페 오도재",
    "photoFile": "https://www.welchon.com/upload/seasontheme/course/2024/05/836e7070-d321-4151-bb25-af517d4aa127.jpg",
    "latitude": 35.44167717,
    "longitude": 127.6932634,
    "address": "경남 함양군 마천면 지리산가는길 534",
    "description": "지리산 뷰에서 농부의 맛과 멋을 한 자리에서"
  },
  {
    "no": 220,
    "destinationName": "개평 한옥문화체험휴양마을",
    "photoFile": "https://www.welchon.com/upload/seasontheme/course/2024/05/c16d8b54-6cbe-42a6-b1ff-c358917463f7.jpg",
    "latitude": 35.56577201,
    "longitude": 127.7673514,
    "address": "경남 함양군 지곡면 개평길 59",
    "description": ""
  },
  {
    "no": 221,
    "destinationName": "최치원 역사공원",
    "photoFile": "https://www.welchon.com/upload/seasontheme/course/2024/05/81650370-85e3-4575-97ae-aa45f7f680d7.jpg",
    "latitude": 35.52587302,
    "longitude": 127.7212979,
    "address": "경남 함양군 함양읍 대맛길 133",
    "description": "고운 최치원의 일대기를 담은"
  },
  {
    "no": 222,
    "destinationName": "옛날삼교리막국수",
    "photoFile": "https://www.welchon.com/upload/seasontheme/course/2024/05/2ffd3eb6-b7d2-4f71-b720-d8074b388fed.jpg",
    "latitude": 37.87858008,
    "longitude": 128.7949802,
    "address": "강원특별자치도 강릉시 주문진읍 신리천로 348-3",
    "description": ""
  },
  {
    "no": 223,
    "destinationName": "선교장",
    "photoFile": "https://www.welchon.com/upload/seasontheme/course/2024/05/bc534517-5605-4ddb-b0c6-028c86e7289a.jpg",
    "latitude": 37.78730544,
    "longitude": 128.8845298,
    "address": "강원특별자치도 강릉시 운정길 63 (운정동)",
    "description": ""
  },
  {
    "no": 224,
    "destinationName": "강릉 복사꽃마을",
    "photoFile": "https://www.welchon.com/upload/seasontheme/course/2024/05/041467ad-dd68-4269-a00a-dca6e30b05cb.jpg",
    "latitude": 37.88002059,
    "longitude": 128.7770305,
    "address": "강원특별자치도 강릉시 주문진읍 신리천로 527-3",
    "description": ""
  },
  {
    "no": 225,
    "destinationName": "마더커피",
    "photoFile": "https://www.welchon.com/upload/seasontheme/course/2024/05/ef244c26-c3d2-4369-bc62-9275838f29be.jpg",
    "latitude": 37.88424844,
    "longitude": 128.8247304,
    "address": "강원특별자치도 강릉시 주문진읍 연주로 359",
    "description": ""
  },
  {
    "no": 226,
    "destinationName": "맹방유채꽃마을",
    "photoFile": "https://www.welchon.com/upload/seasontheme/course/2024/04/10e525d0-de57-4eb7-9087-9f7e3ede3d79.jpg",
    "latitude": 37.40361768,
    "longitude": 129.2088771,
    "address": "강원특별자치도 삼척시 근덕면 상맹방길 270",
    "description": ""
  },
  {
    "no": 227,
    "destinationName": "죽서루",
    "photoFile": "https://www.welchon.com/upload/seasontheme/course/2024/04/39a15ef8-a61d-465d-adee-27ad30fca181.jpg",
    "latitude": 37.44052621,
    "longitude": 129.1609926,
    "address": "강원특별자치도 삼척시 죽서루길 37 (성내동)",
    "description": ""
  },
  {
    "no": 228,
    "destinationName": "덕봉산 해안생태탐방로",
    "photoFile": "https://www.welchon.com/upload/seasontheme/course/2024/04/e1cf2341-3fc8-41d7-9553-b7aa12fab884.jpg",
    "latitude": 37.37378481,
    "longitude": 129.231741,
    "address": "강원특별자치도 삼척시 근덕면 교가오리길 42",
    "description": ""
  },
  {
    "no": 229,
    "destinationName": "맹방해수욕장",
    "photoFile": "https://www.welchon.com/upload/seasontheme/course/2024/04/e77bed3d-0029-4387-a641-bd360c197374.jpg",
    "latitude": 37.38974857,
    "longitude": 129.2319791,
    "address": "강원특별자치도 삼척시 근덕면 맹방해변로 228-239",
    "description": ""
  },
  {
    "no": 230,
    "destinationName": "더호봉",
    "photoFile": "https://www.welchon.com/upload/seasontheme/course/2024/04/dab0b87a-1324-4829-b81d-5c92f3d9a7c0.jpg",
    "latitude": 36.59896989,
    "longitude": 126.6621285,
    "address": "충남 홍성군 홍성읍 내포로 58",
    "description": ""
  },
  {
    "no": 231,
    "destinationName": "홍담",
    "photoFile": "https://www.welchon.com/upload/seasontheme/course/2024/04/ae098fc2-0307-4586-bcff-b8008fde1900.jpg",
    "latitude": 36.60351978,
    "longitude": 126.6075295,
    "address": "충남 홍성군 구항면 구성북로202번길 7",
    "description": ""
  },
  {
    "no": 232,
    "destinationName": "홍주성",
    "photoFile": "https://www.welchon.com/upload/seasontheme/course/2024/04/14429de7-d131-44b6-b8f3-a4b332c4d706.jpg",
    "latitude": 36.59970008,
    "longitude": 126.6611462,
    "address": "충남 홍성군 홍성읍 아문길 20-1",
    "description": ""
  },
  {
    "no": 233,
    "destinationName": "거북이마을",
    "photoFile": "https://www.welchon.com/upload/seasontheme/course/2024/04/fec6c9b8-3392-4f68-8c6b-073e6726bc07.jpg",
    "latitude": 36.5724412,
    "longitude": 126.6120671,
    "address": "충남 홍성군 구항면 거북로 422-41",
    "description": ""
  },
  {
    "no": 234,
    "destinationName": "꽃내미 풀꽃이랑마을",
    "photoFile": "https://www.welchon.com/upload/seasontheme/course/2024/04/b5aab9ab-58d3-47d4-83c6-64edd25940ec.jpg",
    "latitude": 36.59155747,
    "longitude": 127.0869727,
    "address": "충남 공주시 정안면 고성1길 250-34",
    "description": ""
  },
  {
    "no": 235,
    "destinationName": "옛 공주읍사무소",
    "photoFile": "https://www.welchon.com/upload/seasontheme/course/2024/04/6cbcce5a-b86c-4774-8b49-3e59199dd830.jpeg",
    "latitude": 36.45447735,
    "longitude": 127.1217306,
    "address": "충남 공주시 우체국길 6 (반죽동)",
    "description": ""
  },
  {
    "no": 236,
    "destinationName": "공산성",
    "photoFile": "https://www.welchon.com/upload/seasontheme/course/2024/04/110ea7c4-5a10-40c5-be4c-77686fffff61.jpg",
    "latitude": 36.46521604,
    "longitude": 127.1236808,
    "address": "충남 공주시 웅진로 280 (금성동)",
    "description": ""
  },
  {
    "no": 237,
    "destinationName": "중동성당",
    "photoFile": "https://www.welchon.com/upload/seasontheme/course/2024/04/13bfc701-e778-42ba-9877-8c9cb8a252ef.jpeg",
    "latitude": 36.45517195,
    "longitude": 127.1276967,
    "address": "충남 공주시 성당길 6 (중동)",
    "description": ""
  },
  {
    "no": 238,
    "destinationName": "신흥사",
    "photoFile": "https://www.welchon.com/upload/seasontheme/course/2024/04/64d9b779-e814-4df4-9bc8-5a6da84f057e.jpg",
    "latitude": 38.17573644,
    "longitude": 128.4843568,
    "address": "강원특별자치도 속초시 설악산로 1137 (설악동)",
    "description": ""
  },
  {
    "no": 239,
    "destinationName": "외옹치바다향기로",
    "photoFile": "https://www.welchon.com/upload/seasontheme/course/2024/04/c675364a-6660-477f-ac70-532644172fd9.jpg",
    "latitude": 38.18093561,
    "longitude": 128.6091484,
    "address": "강원특별자치도 속초시 해오름로 62-3 (대포동)",
    "description": ""
  },
  {
    "no": 240,
    "destinationName": "오씨브루잉커피",
    "photoFile": "https://www.welchon.com/upload/seasontheme/course/2024/04/3f6b444a-63fc-4e23-aa3a-634006f8fdc0.jpg",
    "latitude": 38.16768238,
    "longitude": 128.5569101,
    "address": "강원특별자치도 속초시 설악산로470번길 22 (도문동)",
    "description": ""
  },
  {
    "no": 241,
    "destinationName": "상도문돌담마을 (상도문1테마마을)",
    "photoFile": "https://www.welchon.com/upload/seasontheme/course/2024/04/5e04996d-848c-431e-b095-c9394c2d9842.png",
    "latitude": 38.16393967,
    "longitude": 128.5513608,
    "address": "강원특별자치도 속초시 상도문2길 53-8 (도문동)",
    "description": ""
  },
  {
    "no": 242,
    "destinationName": "옥천묘목공원",
    "photoFile": "https://www.welchon.com/upload/seasontheme/course/2024/04/2e86e57b-6a82-4433-87ee-3499e1e83841.jpg",
    "latitude": 36.24660997,
    "longitude": 127.6268656,
    "address": "충북 옥천군 이원면 이원로 830",
    "description": ""
  },
  {
    "no": 243,
    "destinationName": "송주미술관카페",
    "photoFile": "https://www.welchon.com/upload/seasontheme/course/2024/04/528f06b9-c663-4d29-b09e-47481d03d738.jpg",
    "latitude": 36.10566221,
    "longitude": 127.5523888,
    "address": "충남 금산군 제원면 남사길 25-53",
    "description": ""
  },
  {
    "no": 244,
    "destinationName": "산안2리마을 금산산벚꽃축제",
    "photoFile": "https://www.welchon.com/upload/seasontheme/course/2024/04/075dd100-02d2-4e20-b8d1-ddafcff25962.jpg",
    "latitude": 36.19439814,
    "longitude": 127.5676098,
    "address": "충남 금산군 군북면 자진뱅이길 39",
    "description": ""
  },
  {
    "no": 245,
    "destinationName": "매화둠벙마을",
    "photoFile": "https://www.welchon.com/upload/seasontheme/course/2024/04/f963ff8a-1b21-49a6-a0dc-df7ca0ad2d09.jpg",
    "latitude": 36.81206713,
    "longitude": 126.2268151,
    "address": "충남 태안군 원북면 동해길 301-41",
    "description": ""
  },
  {
    "no": 246,
    "destinationName": "청산수목원",
    "photoFile": "https://www.welchon.com/upload/seasontheme/course/2024/04/8f149ffb-ee2a-49dd-bf64-8ec9f0a5af89.jpg",
    "latitude": 36.68658558,
    "longitude": 126.2973944,
    "address": "충남 태안군 남면 연꽃길 70",
    "description": ""
  },
  {
    "no": 247,
    "destinationName": "신두리 해안사구",
    "photoFile": "https://www.welchon.com/upload/seasontheme/course/2024/04/d8ba82e2-ac3b-49fd-8530-01655fe84713.jpg",
    "latitude": 36.84277137,
    "longitude": 126.1946805,
    "address": "충남 태안군 원북면 신두해변길 201-54",
    "description": ""
  },
  {
    "no": 248,
    "destinationName": "천리포수목원",
    "photoFile": "https://www.welchon.com/upload/seasontheme/course/2024/04/8ebdb063-6276-4ff5-bfd9-738064930822.jpg",
    "latitude": 36.7986952,
    "longitude": 126.1505412,
    "address": "충남 태안군 소원면 천리포1길 187",
    "description": ""
  },
  {
    "no": 249,
    "destinationName": "순천만습지",
    "photoFile": "https://www.welchon.com/upload/seasontheme/course/2024/04/8255e07e-6894-4d50-bef2-0b32c38aabca.jpg",
    "latitude": 34.88579701,
    "longitude": 127.5092833,
    "address": "전남 순천시 순천만길 513-25 (대대동)",
    "description": ""
  },
  {
    "no": 250,
    "destinationName": "향매실 마을",
    "photoFile": "https://www.welchon.com/upload/seasontheme/course/2024/04/4f73c3f4-ad2f-42e7-a72f-f2f8cf31718c.jpg",
    "latitude": 35.0622232,
    "longitude": 127.4045548,
    "address": "전남 순천시 월등면 계월길 138",
    "description": ""
  },
  {
    "no": 251,
    "destinationName": "낙안돌탑공원",
    "photoFile": "https://www.welchon.com/upload/seasontheme/course/2024/04/f51c1b17-b7c5-425e-a9df-2881d6786949.jpg",
    "latitude": 34.90693891,
    "longitude": 127.3461603,
    "address": "전남 순천시 낙안면 민속마을길 1697",
    "description": ""
  },
  {
    "no": 252,
    "destinationName": "낙안읍성",
    "photoFile": "https://www.welchon.com/upload/seasontheme/course/2024/04/8c556970-ac29-44e3-a0d8-6e9d56cd7e5e.jpg",
    "latitude": 34.90640107,
    "longitude": 127.3418226,
    "address": "전남 순천시 낙안면 충민길 30",
    "description": ""
  },
  {
    "no": 253,
    "destinationName": "",
    "photoFile": "https://www.welchon.com/upload/seasontheme/course/2024/04/55b59eba-773f-4248-b698-559a63fb891a.jpg",
    "latitude": 35.04403959,
    "longitude": 127.5928276,
    "address": "전남 광양시 옥룡면 상산길 31",
    "description": ""
  },
  {
    "no": 254,
    "destinationName": "구봉산전망대",
    "photoFile": "https://www.welchon.com/upload/seasontheme/course/2024/04/ed420fd6-380f-44e1-b221-34ff4d093b61.jpg",
    "latitude": 34.93646837,
    "longitude": 127.6427008,
    "address": "전남 광양시 구봉산전망대길 155 (성황동)",
    "description": ""
  },
  {
    "no": 255,
    "destinationName": "광양 와인동굴",
    "photoFile": "https://www.welchon.com/upload/seasontheme/course/2024/04/da24521a-3e14-4322-b38a-493775a325d9.jpg",
    "latitude": 34.96130263,
    "longitude": 127.6085908,
    "address": "전남 광양시 광양읍 강정길 33",
    "description": ""
  },
  {
    "no": 256,
    "destinationName": "백운산자연휴양림",
    "photoFile": "https://www.welchon.com/upload/seasontheme/course/2024/04/b348ba74-8f57-48bf-86d1-fd54d3bc2f2d.jpg",
    "latitude": 35.05645794,
    "longitude": 127.597649,
    "address": "전남 광양시 옥룡면 백계로 405",
    "description": ""
  },
  {
    "no": 257,
    "destinationName": "솔향공원",
    "photoFile": "https://www.welchon.com/upload/seasontheme/course/2024/04/de03a75c-8df1-4e3d-af5b-332d68a3d06d.jpg",
    "latitude": 36.50003296,
    "longitude": 127.8031957,
    "address": "충북 보은군 속리산면 속리산로 611",
    "description": ""
  },
  {
    "no": 258,
    "destinationName": "하얀민들레마을",
    "photoFile": "https://www.welchon.com/upload/seasontheme/course/2024/04/c6820312-e586-4cf7-a89a-595899195356.jpg",
    "latitude": 36.49200826,
    "longitude": 127.6096478,
    "address": "충북 보은군 회인면 부수길 111-2",
    "description": ""
  },
  {
    "no": 259,
    "destinationName": "법주사",
    "photoFile": "https://www.welchon.com/upload/seasontheme/course/2024/04/d4f6dfad-2d66-4227-b57c-c783d3d4d43b.jpg",
    "latitude": 36.54112018,
    "longitude": 127.832938,
    "address": "충북 보은군 속리산면 법주사로 405",
    "description": ""
  },
  {
    "no": 260,
    "destinationName": "산막이옛길",
    "photoFile": "https://www.welchon.com/upload/seasontheme/course/2024/03/9c8e884d-f9f4-4e1f-bb0c-da785fbb8987.jpg",
    "latitude": 36.76103415,
    "longitude": 127.8387529,
    "address": "충북 괴산군 칠성면 산막이옛길 88",
    "description": ""
  },
  {
    "no": 261,
    "destinationName": "조령산자연휴양림 (연풍새재)",
    "photoFile": "https://www.welchon.com/upload/seasontheme/course/2024/03/45d40c99-7517-445a-9979-0b98323294a6.jpg",
    "latitude": 36.81234078,
    "longitude": 128.0462435,
    "address": "충북 괴산군 연풍면 새재로 1795",
    "description": ""
  },
  {
    "no": 262,
    "destinationName": "미선나무마을",
    "photoFile": "https://www.welchon.com/upload/seasontheme/course/2024/03/7251858b-a7c6-46e8-a9c6-7bee49e68c9f.jpg",
    "latitude": 36.7768047,
    "longitude": 127.8871549,
    "address": "충북 괴산군 칠성면 연풍로 63",
    "description": ""
  },
  {
    "no": 263,
    "destinationName": "숲속작은책방",
    "photoFile": "https://www.welchon.com/upload/seasontheme/course/2024/03/8bd96cbb-67a4-4666-9673-77742a809abc.jpg",
    "latitude": 36.76739514,
    "longitude": 127.8301571,
    "address": "충북 괴산군 칠성면 명태재로미루길 90",
    "description": ""
  },
  {
    "no": 264,
    "destinationName": "산수유마을",
    "photoFile": "https://www.welchon.com/upload/seasontheme/course/2024/03/e38e07e1-24fd-4953-82e8-c8f4d061205b.jpg",
    "latitude": 37.34077594,
    "longitude": 127.4622955,
    "address": "경기 이천시 백사면 원적로775번길 17",
    "description": ""
  },
  {
    "no": 265,
    "destinationName": "더반 올가닉",
    "photoFile": "https://www.welchon.com/upload/seasontheme/course/2024/03/00540c1a-9e93-4534-bdee-ab5de7349b8d.jpg",
    "latitude": 37.27229693,
    "longitude": 127.508717,
    "address": "경기 이천시 부발읍 부발중앙로221번길 89",
    "description": ""
  },
  {
    "no": 266,
    "destinationName": "서희 테마파크",
    "photoFile": "https://www.welchon.com/upload/seasontheme/course/2024/03/b382761b-5fad-4ebd-b6bd-a20166a80848.jpg",
    "latitude": 37.27623166,
    "longitude": 127.4815256,
    "address": "경기 이천시 부발읍 무촌로18번길 130",
    "description": ""
  },
  {
    "no": 267,
    "destinationName": "이천 시립박물관",
    "photoFile": "https://www.welchon.com/upload/seasontheme/course/2024/03/956409b5-ebdb-4aae-8119-03cb07323684.jpg",
    "latitude": 37.27489133,
    "longitude": 127.4273147,
    "address": "경기 이천시 경충대로2697번길 172 (관고동)",
    "description": ""
  },
  {
    "no": 268,
    "destinationName": "한림공원",
    "photoFile": "https://www.welchon.com/upload/seasontheme/course/2024/03/7e29147b-5b26-4fc6-82de-22e1f161b0ca.jpg",
    "latitude": 33.39022485,
    "longitude": 126.2396911,
    "address": "제주특별자치도 제주시 한림읍 한림로 300",
    "description": ""
  },
  {
    "no": 269,
    "destinationName": "두산봉",
    "photoFile": "https://www.welchon.com/upload/seasontheme/course/2024/03/e306d1f4-d573-457c-a7fb-97f8afeb789d.jpg",
    "latitude": 33.4780465,
    "longitude": 126.9095534,
    "address": "제주특별자치도 서귀포시 성산읍 해맞이해안로 2615",
    "description": ""
  },
  {
    "no": 270,
    "destinationName": "세화리 체험마을",
    "photoFile": "https://www.welchon.com/upload/seasontheme/course/2024/03/6c4e9180-9cb5-47db-9fab-3946b54a0537.jpg",
    "latitude": 33.52699196,
    "longitude": 126.8560321,
    "address": "제주특별자치도 제주시 구좌읍 세평항로 46-9",
    "description": ""
  },
  {
    "no": 271,
    "destinationName": "별방진",
    "photoFile": "https://www.welchon.com/upload/seasontheme/course/2024/03/008873fd-bb9b-46ee-bf0b-1efeeb07d38e.jpg",
    "latitude": 33.51982682,
    "longitude": 126.8896237,
    "address": "제주특별자치도 제주시 구좌읍 문주란로 68",
    "description": ""
  },
  {
    "no": 272,
    "destinationName": "진천종박물관",
    "photoFile": "https://www.welchon.com/upload/seasontheme/course/2024/03/a2838511-8139-46fe-a6ac-0f385da4d36f.jpg",
    "latitude": 36.87002892,
    "longitude": 127.4131748,
    "address": "충북 진천군 진천읍 백곡로 1504-12",
    "description": "종의 모든 것. 진천종박물관"
  },
  {
    "no": 273,
    "destinationName": "진천 물안뜰마을",
    "photoFile": "https://www.welchon.com/upload/seasontheme/course/2024/03/42eb1867-2325-4c9a-8767-bc4da6c22684.jpg",
    "latitude": 36.88043841,
    "longitude": 127.3815228,
    "address": "충북 진천군 백곡면 백곡로 964",
    "description": "참숯으로 불가마와 체험을 할 수 있는 독특한 마을. 진천 물안뜰마을"
  },
  {
    "no": 274,
    "destinationName": "뤁스퀘어",
    "photoFile": "https://www.welchon.com/upload/seasontheme/course/2024/03/e7459ac0-399a-4f08-a2bb-97b5ba6d2af2.jpg",
    "latitude": 36.94286226,
    "longitude": 127.4317319,
    "address": "충북 진천군 이월면 진광로 928-27",
    "description": "농업 복합문화공간 진천 뤁스퀘어"
  },
  {
    "no": 275,
    "destinationName": "진천 참숯전시관",
    "photoFile": "https://www.welchon.com/upload/seasontheme/course/2024/03/2e0d8d25-2064-4e0c-af16-63e60bcab305.jpg",
    "latitude": 36.87975646,
    "longitude": 127.3822239,
    "address": "충북 진천군 백곡면 백곡로 966",
    "description": ""
  },
  {
    "no": 276,
    "destinationName": "슬로시티수산마을",
    "photoFile": "https://www.welchon.com/upload/seasontheme/course/2024/03/bba3f8ce-1004-4963-a225-b641d1974307.jpg",
    "latitude": 36.9323937,
    "longitude": 128.1801691,
    "address": "충북 제천시 수산면 월악로26길 36",
    "description": "제천에서 나고 자란 로컬 재료를 활용하는 슬로시티수산마을"
  },
  {
    "no": 277,
    "destinationName": "청풍문화재단지",
    "photoFile": "https://www.welchon.com/upload/seasontheme/course/2024/03/eb5216cf-f7a7-4ac3-a798-b4d92a6f5f52.jpg",
    "latitude": 37.00404831,
    "longitude": 128.1733828,
    "address": "충북 제천시 청풍면 청풍호로 2048",
    "description": "충주호 풍경과 수몰된 마을의 역사를 담은 청풍문화재단지"
  },
  {
    "no": 278,
    "destinationName": "옥순봉출렁다리",
    "photoFile": "https://www.welchon.com/upload/seasontheme/course/2024/03/0f0ed08e-50f9-42a0-83a4-45446d699251.jpg",
    "latitude": 36.9442451,
    "longitude": 128.23147,
    "address": "충북 제천시 수산면 옥순봉로 342",
    "description": "제천 청풍호의 풍경을 감상할 수 있는 옥순봉출렁다리"
  },
  {
    "no": 279,
    "destinationName": "한방엑스포공원",
    "photoFile": "https://www.welchon.com/upload/seasontheme/course/2024/03/b0362ab7-027a-46ea-95a8-5e780e64a138.jpg",
    "latitude": 37.14373392,
    "longitude": 128.1597626,
    "address": "충북 제천시 한방엑스포로 19 (왕암동)",
    "description": "한방과 건강 정보는 한 눈에. 제천 한방엑스포공원"
  },
  {
    "no": 280,
    "destinationName": "모례가정권역 마을",
    "photoFile": "https://www.welchon.com/upload/seasontheme/course/2024/03/dc47f2a9-8a30-49f5-8505-2c6d98dd47d5.jpg",
    "latitude": 36.28952972,
    "longitude": 128.3601126,
    "address": "경북 구미시 도개면 도개다곡길 389-7",
    "description": ""
  },
  {
    "no": 281,
    "destinationName": "새마을운동테마공원",
    "photoFile": "https://www.welchon.com/upload/seasontheme/course/2024/03/c1c794b4-6f7d-4d60-8683-f0aaf839ddf7.jpg",
    "latitude": 36.09361585,
    "longitude": 128.3513721,
    "address": "경북 구미시 박정희로 155 (사곡동)",
    "description": ""
  },
  {
    "no": 282,
    "destinationName": "쌍암고택",
    "photoFile": "https://www.welchon.com/upload/seasontheme/course/2024/03/c93b105c-b0ed-40b6-9fe0-b4ee73dbf26e.jpg",
    "latitude": 36.19001529,
    "longitude": 128.384094,
    "address": "경북 구미시 해평면 해평2길 40 구미 쌍암고택",
    "description": ""
  },
  {
    "no": 283,
    "destinationName": "구미 신라불교 초전지",
    "photoFile": "https://www.welchon.com/upload/seasontheme/course/2024/03/d78b5712-5736-4fcc-be3b-48281c0ae45f.jpg",
    "latitude": 36.29090918,
    "longitude": 128.3633378,
    "address": "경북 구미시 도개면 도개다곡길 389-46",
    "description": ""
  },
  {
    "no": 284,
    "destinationName": "무풍승지마을",
    "photoFile": "https://www.welchon.com/upload/seasontheme/course/2024/03/1e24111b-de7c-481f-a2ef-5fe21cea3b00.jpg",
    "latitude": 35.96006274,
    "longitude": 127.8397349,
    "address": "전북특별자치도 무주군 무풍면 철목길 61",
    "description": ""
  },
  {
    "no": 285,
    "destinationName": "무주반디별천문과학관",
    "photoFile": "https://www.welchon.com/upload/seasontheme/course/2024/03/13c7fa5b-bb4a-4ce4-9a08-b072e9028a7e.jpg",
    "latitude": 36.01224499,
    "longitude": 127.7614843,
    "address": "전북특별자치도 무주군 설천면 무설로 1324",
    "description": ""
  },
  {
    "no": 286,
    "destinationName": "전북제사1970",
    "photoFile": "https://www.welchon.com/upload/seasontheme/course/2024/03/1ce9589c-0e58-4b69-91c8-27f7ea312354.jpg",
    "latitude": 36.01057449,
    "longitude": 127.6878487,
    "address": "전북특별자치도 무주군 무주읍 무설로 104",
    "description": ""
  },
  {
    "no": 287,
    "destinationName": "라제통문",
    "photoFile": "https://www.welchon.com/upload/seasontheme/course/2024/03/f8479853-b073-4621-8e8a-6c8b56537a34.jpg",
    "latitude": 35.94626976,
    "longitude": 127.752831,
    "address": "전북특별자치도 무주군 설천면 구천동로 1655-2",
    "description": ""
  },
  {
    "no": 288,
    "destinationName": "홍암마을",
    "photoFile": "https://www.welchon.com/upload/seasontheme/course/2024/03/1e648950-67e6-47b3-ad3c-393f13f80db4.jpg",
    "latitude": 35.38043064,
    "longitude": 126.9286677,
    "address": "전남 담양군 월산면 홍암길 61",
    "description": ""
  },
  {
    "no": 289,
    "destinationName": "담양커피농장",
    "photoFile": "https://www.welchon.com/upload/seasontheme/course/2024/03/cd0b2b10-9a0d-4718-90e4-e7cc7b4c6254.jpg",
    "latitude": 35.34561178,
    "longitude": 127.02566,
    "address": "전남 담양군 금성면 석현길 87",
    "description": ""
  },
  {
    "no": 290,
    "destinationName": "죽녹원",
    "photoFile": "https://www.welchon.com/upload/seasontheme/course/2024/03/e3fbcb05-9970-4b2a-bde6-752a7df7c30c.jpg",
    "latitude": 35.32535665,
    "longitude": 126.9866155,
    "address": "전남 담양군 담양읍 죽녹원로 119",
    "description": ""
  },
  {
    "no": 291,
    "destinationName": "한국대나무박물관",
    "photoFile": "https://www.welchon.com/upload/seasontheme/course/2024/03/dcbcf50f-e6ef-4c50-94ae-d727cc6147ce.jpg",
    "latitude": 35.30934367,
    "longitude": 126.9764088,
    "address": "전남 담양군 담양읍 죽향문화로 35 담양문화원",
    "description": ""
  },
  {
    "no": 292,
    "destinationName": "월정사",
    "photoFile": "https://www.welchon.com/upload/seasontheme/course/2024/02/4be2c0c4-257e-410d-ad23-564674eda5ef.jpg",
    "latitude": 37.73167811,
    "longitude": 128.5931366,
    "address": "강원특별자치도 평창군 진부면 오대산로 374-8",
    "description": ""
  },
  {
    "no": 293,
    "destinationName": "소도둑놈마을",
    "photoFile": "https://www.welchon.com/upload/seasontheme/course/2024/02/fdd94434-452f-4196-9eb3-6bde68a76a37.jpg",
    "latitude": 37.64387161,
    "longitude": 128.5378831,
    "address": "강원특별자치도 평창군 진부면 경강로 3346-9",
    "description": ""
  },
  {
    "no": 294,
    "destinationName": "국립조선왕조실록박물관",
    "photoFile": "https://www.welchon.com/upload/seasontheme/course/2024/03/751806de-1c97-4c44-aacd-c5722192cde7.jpg",
    "latitude": 37.71883128,
    "longitude": 128.6029483,
    "address": "강원특별자치도 평창군 진부면 오대산로 176",
    "description": ""
  },
  {
    "no": 295,
    "destinationName": "월정사성보박물관",
    "photoFile": "https://www.welchon.com/upload/seasontheme/course/2024/03/ee9aa553-d1aa-47b3-82fb-990ac30fdd96.jpg",
    "latitude": 37.71883128,
    "longitude": 128.6029483,
    "address": "강원특별자치도 평창군 진부면 오대산로 176 월정사성보박물관",
    "description": ""
  },
  {
    "no": 296,
    "destinationName": "용궁역테마공원",
    "photoFile": "https://www.welchon.com/upload/seasontheme/course/2024/02/9137b229-fea1-4135-bc00-fddd6a250ed0.jpg",
    "latitude": 36.60691327,
    "longitude": 128.273447,
    "address": "경북 예천군 용궁면 용궁로 80",
    "description": ""
  },
  {
    "no": 297,
    "destinationName": "산양정행소",
    "photoFile": "https://www.welchon.com/upload/seasontheme/course/2024/02/821374b1-badf-4089-b106-b6b5a55d77a8.jpg",
    "latitude": 36.61226776,
    "longitude": 128.2586047,
    "address": "경북 문경시 산양면 불암2길 14-5",
    "description": ""
  },
  {
    "no": 298,
    "destinationName": "화수헌",
    "photoFile": "https://www.welchon.com/upload/seasontheme/course/2024/02/1134aec6-9a44-498c-88bb-f98d7abe8602.jpg",
    "latitude": 36.6391217,
    "longitude": 128.2561476,
    "address": "경북 문경시 산양면 현리3길 9",
    "description": "200년 된 고택을 한옥 카페로. 화수헌"
  },
  {
    "no": 299,
    "destinationName": "궁터마을",
    "photoFile": "https://www.welchon.com/upload/seasontheme/course/2024/02/462d7671-cebe-4c24-98d5-ba31211d3178.jpg",
    "latitude": 36.61392631,
    "longitude": 127.963302,
    "address": "경북 문경시 농암면 궁터길 184",
    "description": ""
  },
  {
    "no": 300,
    "destinationName": "의림지",
    "photoFile": "https://www.welchon.com/upload/seasontheme/course/2024/02/f0c3cb60-6681-4e8e-9560-4e1ba5198064.jpg",
    "latitude": 37.17583611,
    "longitude": 128.2084357,
    "address": "충북 제천시 의림지로 30 (모산동)",
    "description": ""
  },
  {
    "no": 301,
    "destinationName": "의림지역사박물관",
    "photoFile": "https://www.welchon.com/upload/seasontheme/course/2024/02/2207ccd0-a784-48bb-b767-0d738f5dd30d.jpg",
    "latitude": 37.17612981,
    "longitude": 128.2095155,
    "address": "충북 제천시 의림대로47길 7 (모산동)",
    "description": ""
  },
  {
    "no": 302,
    "destinationName": "비룡담 저수지",
    "photoFile": "https://www.welchon.com/upload/seasontheme/course/2024/02/3b89d9e4-8996-45ad-ae39-2e63a9ad30c2.jpg",
    "latitude": 37.18708981,
    "longitude": 128.2066293,
    "address": "충북 제천시 송학면 의림대로 676-19",
    "description": ""
  },
  {
    "no": 303,
    "destinationName": "명암산채건강마을",
    "photoFile": "https://www.welchon.com/upload/seasontheme/course/2024/02/ae086628-ac71-4753-8900-4d330a5e42f1.jpg",
    "latitude": 37.19065583,
    "longitude": 128.1437385,
    "address": "충북 제천시 봉양읍 명암로 574",
    "description": ""
  },
  {
    "no": 304,
    "destinationName": "외갓집체험마을",
    "photoFile": "https://www.welchon.com/upload/seasontheme/course/2024/02/2698c830-413a-48aa-bb04-13e3726ea2e9.jpg",
    "latitude": 37.56187717,
    "longitude": 127.7750605,
    "address": "경기 양평군 청운면 신론로 344",
    "description": ""
  },
  {
    "no": 305,
    "destinationName": "양떼목장",
    "photoFile": "https://www.welchon.com/upload/seasontheme/course/2024/02/7e9ba0f5-ae5e-422e-a726-45865b2d4e3a.jpg",
    "latitude": 37.51541732,
    "longitude": 127.6288222,
    "address": "경기 양평군 용문면 은고갯길 112",
    "description": ""
  },
  {
    "no": 306,
    "destinationName": "풀향기 허브나라 토이전시관",
    "photoFile": "https://www.welchon.com/upload/seasontheme/course/2024/02/eee34d7b-785d-4839-a018-d4788cfcaeef.jpg",
    "latitude": 37.50776676,
    "longitude": 127.6057842,
    "address": "경기 양평군 용문면 용문산로 120-7",
    "description": ""
  },
  {
    "no": 307,
    "destinationName": "양평군립미술관",
    "photoFile": "https://www.welchon.com/upload/seasontheme/course/2024/02/da1dd8bb-db61-4712-abef-e70bcdbf5dcc.jpg",
    "latitude": 37.49709934,
    "longitude": 127.4839989,
    "address": "경기 양평군 양평읍 문화복지길 2",
    "description": ""
  },
  {
    "no": 308,
    "destinationName": "영광칠산타워",
    "photoFile": "https://www.welchon.com/upload/seasontheme/course/2024/02/07ae46c2-a1bd-4d38-8db6-794175233a69.jpg",
    "latitude": 35.16863371,
    "longitude": 126.3603067,
    "address": "전남 영광군 염산면 향화로 2-10",
    "description": ""
  },
  {
    "no": 309,
    "destinationName": "불갑사",
    "photoFile": "https://www.welchon.com/upload/seasontheme/course/2024/02/a841cb26-7746-41fe-aaea-55bb9bbe4868.jpg",
    "latitude": 35.19967507,
    "longitude": 126.5500476,
    "address": "전남 영광군 불갑면 불갑사로 450",
    "description": ""
  },
  {
    "no": 310,
    "destinationName": "백수놀마을",
    "photoFile": "https://www.welchon.com/upload/seasontheme/course/2024/02/112e7cee-ae2a-42ae-b8be-0cd09ae15149.jpg",
    "latitude": 35.28305889,
    "longitude": 126.4014202,
    "address": "전남 영광군 백수읍 백수로 835",
    "description": ""
  },
  {
    "no": 311,
    "destinationName": "영광백수해안도로",
    "photoFile": "https://www.welchon.com/upload/seasontheme/course/2024/02/4120ccd2-fd37-453c-b247-4f8f257ff838.jpg",
    "latitude": 35.35373192,
    "longitude": 126.3892813,
    "address": "전남 영광군 백수읍 해안로 957",
    "description": ""
  },
  {
    "no": 312,
    "destinationName": "울산암각화박물관",
    "photoFile": "https://www.welchon.com/upload/seasontheme/course/2024/02/f24f1d0b-c10e-4d5d-9edf-d72f9d191ba5.jpg",
    "latitude": 35.60806072,
    "longitude": 129.1705538,
    "address": "울산 울주군 두동면 반구대안길 254 울산암각화박물관",
    "description": ""
  },
  {
    "no": 313,
    "destinationName": "양산 통도사",
    "photoFile": "https://www.welchon.com/upload/seasontheme/course/2024/02/11541c57-869d-4771-ac1b-bacc3b66fbb3.jpg",
    "latitude": 35.47542096,
    "longitude": 129.0566501,
    "address": "경남 양산시 하북면 통도사로 108",
    "description": ""
  },
  {
    "no": 314,
    "destinationName": "소호마을",
    "photoFile": "https://www.welchon.com/upload/seasontheme/course/2024/02/2d205afa-aa5f-4189-9551-48c37a4f091b.jpg",
    "latitude": 35.66914353,
    "longitude": 129.086142,
    "address": "울산 울주군 상북면 소호대리길 7",
    "description": ""
  },
  {
    "no": 315,
    "destinationName": "울산대곡박물관",
    "photoFile": "https://www.welchon.com/upload/seasontheme/course/2024/02/76c9010a-4603-4bd3-88b8-764a701487f9.jpg",
    "latitude": 35.61909806,
    "longitude": 129.1691895,
    "address": "울산 울주군 두동면 서하천전로 257",
    "description": ""
  },
  {
    "no": 316,
    "destinationName": "화본역 산성중학교",
    "photoFile": "https://www.welchon.com/upload/seasontheme/course/2024/02/727b6799-201c-421d-b8ba-f181a7c0c28c.jpg",
    "latitude": 36.12777952,
    "longitude": 128.6961202,
    "address": "대구 군위군 산성면 산성가음로 722",
    "description": ""
  },
  {
    "no": 317,
    "destinationName": "철도관사마을",
    "photoFile": "https://www.welchon.com/upload/seasontheme/course/2024/02/13164a10-e1bc-42a3-883b-c80758b62a2f.png",
    "latitude": 34.94925037,
    "longitude": 127.5006247,
    "address": "전남 순천시 자경2길 10-5 (조곡동)",
    "description": "칙칙폭폭 레트로 골목여행. 철도관사마을"
  },
  {
    "no": 318,
    "destinationName": "보성여관",
    "photoFile": "https://www.welchon.com/upload/seasontheme/course/2024/02/45f585d8-d473-4ef7-9558-b0da54b06099.png",
    "latitude": 34.84384599,
    "longitude": 127.3432515,
    "address": "전남 보성군 벌교읍 태백산맥길 19",
    "description": "100년 전으로 떠나는 시간여행, 보성여관"
  },
  {
    "no": 319,
    "destinationName": "득량역",
    "photoFile": "https://www.welchon.com/upload/seasontheme/course/2024/02/db6572d5-89c0-4aba-a616-f094dcbf387f.png",
    "latitude": 34.76147662,
    "longitude": 127.1701481,
    "address": "전남 보성군 득량면 역전길 28",
    "description": "추억을 싣고 달리는 기차, 득량역 추억의 거리"
  },
  {
    "no": 320,
    "destinationName": "재인폭포",
    "photoFile": "https://www.welchon.com/upload/seasontheme/course/2024/01/707c9e0d-be96-4d68-b105-1f24a5a188ad.jpg",
    "latitude": 38.06449678,
    "longitude": 127.1274089,
    "address": "경기 연천군 연천읍 현문로508번길 140",
    "description": ""
  },
  {
    "no": 321,
    "destinationName": "경기도 연천군 푸르내마을",
    "photoFile": "https://www.welchon.com/upload/seasontheme/course/2024/01/ba3bc4d8-517f-4dca-87ed-f3304f48d9a6.jpg",
    "latitude": 38.03476265,
    "longitude": 127.1067217,
    "address": "경기 연천군 청산면 청연로 30-62",
    "description": ""
  },
  {
    "no": 322,
    "destinationName": "연천 전곡리 유적",
    "photoFile": "https://www.welchon.com/upload/seasontheme/course/2024/01/e5a162a4-c69e-4041-af1a-9a11f2448c4c.jpg",
    "latitude": 38.01564838,
    "longitude": 127.0614526,
    "address": "경기 연천군 전곡읍 양연로 1510",
    "description": ""
  },
  {
    "no": 323,
    "destinationName": "고랑포구역사공원",
    "photoFile": "https://www.welchon.com/upload/seasontheme/course/2024/01/fabcdfad-3e97-44aa-833e-80f7bba516b4.jpg",
    "latitude": 37.98789133,
    "longitude": 126.8473295,
    "address": "경기 연천군 장남면 장남로 270",
    "description": ""
  },
  {
    "no": 324,
    "destinationName": "수선사",
    "photoFile": "https://www.welchon.com/upload/seasontheme/course/2024/01/52721c5c-692b-4755-9b35-a6021a472f1a.jpg",
    "latitude": 35.39920644,
    "longitude": 127.8702402,
    "address": "경남 산청군 산청읍 웅석봉로154번길 102-23",
    "description": ""
  },
  {
    "no": 325,
    "destinationName": "남사 예담촌 마을",
    "photoFile": "https://www.welchon.com/upload/seasontheme/course/2024/01/41f7e3e2-6bd0-4bf7-947e-87f3a26fef9c.jpg",
    "latitude": 35.27438587,
    "longitude": 127.9363054,
    "address": "경남 산청군 단성면 지리산대로2897번길 10",
    "description": ""
  },
  {
    "no": 326,
    "destinationName": "정취암",
    "photoFile": "https://www.welchon.com/upload/seasontheme/course/2024/01/330f2d60-57c3-4198-9556-dd32257de58f.jpg",
    "latitude": 35.38911809,
    "longitude": 127.9746787,
    "address": "경남 산청군 신등면 둔철산로 675-87",
    "description": ""
  },
  {
    "no": 327,
    "destinationName": "낙강물길공원",
    "photoFile": "https://www.welchon.com/upload/seasontheme/course/2024/01/9bb1385b-05eb-433d-8918-fb5ec34a407d.jpg",
    "latitude": 36.59024755,
    "longitude": 128.7821071,
    "address": "경북 안동시 와룡면 호반로 287-16",
    "description": ""
  },
  {
    "no": 328,
    "destinationName": "안동하회마을",
    "photoFile": "https://www.welchon.com/upload/seasontheme/course/2024/01/695f155c-b21c-4dde-85ec-3e80184a4ec1.jpg",
    "latitude": 36.55031383,
    "longitude": 128.5289063,
    "address": "경북 안동시 풍천면 전서로 186",
    "description": ""
  },
  {
    "no": 329,
    "destinationName": "농암종택",
    "photoFile": "https://www.welchon.com/upload/seasontheme/course/2024/01/c3f04815-c9a8-4089-801d-e439447a782b.jpg",
    "latitude": 36.7637492,
    "longitude": 128.8850081,
    "address": "경북 안동시 도산면 가송길 162-133",
    "description": ""
  },
  {
    "no": 330,
    "destinationName": "승산부자마을",
    "photoFile": "https://www.welchon.com/upload/seasontheme/course/2024/01/efa5b216-01b1-42a4-8f93-681537f3e9c8.jpg",
    "latitude": 35.23642257,
    "longitude": 128.2706959,
    "address": "경남 진주시 지수면 지수로 506",
    "description": ""
  },
  {
    "no": 331,
    "destinationName": "남가람공원",
    "photoFile": "https://www.welchon.com/upload/seasontheme/course/2024/01/4d459849-ea69-49bb-87eb-228214b7065a.jpg",
    "latitude": 35.18720656,
    "longitude": 128.0821762,
    "address": "경남 진주시 강남로 320 (망경동)",
    "description": "가볍게 산책하고 야경도 즐기고! 남가람공원"
  },
  {
    "no": 332,
    "destinationName": "진양호",
    "photoFile": "https://www.welchon.com/upload/seasontheme/course/2024/01/7bf2c98d-4bb0-4529-852b-4e7b6de2dc02.jpg",
    "latitude": 35.17660991,
    "longitude": 128.0362677,
    "address": "경남 진주시 남강로1번길 130 (판문동)",
    "description": "물안개와 노을을 만날 수 있는 곳"
  },
  {
    "no": 333,
    "destinationName": "진주성",
    "photoFile": "https://www.welchon.com/upload/seasontheme/course/2024/01/13a97685-9b6a-449a-b5da-466b911e3f22.jpg",
    "latitude": 35.19043372,
    "longitude": 128.0802221,
    "address": "경남 진주시 남강로 626 (본성동)",
    "description": "역사를 품고 있는 진주성"
  },